{
"type": "FeatureCollection",
"name": "waypoints",
"crs": { "type": "name", "properties": { "name": "urn:ogc:def:crs:OGC:1.3:CRS84" } },
"features": [
{ "type": "Feature", "properties": { "name": "WILDENBERG", "cmt": "PROV: DRENTHE, INW: -", "desc": "PROV: DRENTHE, INW: -", "sym": "Medium City" }, "geometry": { "type": "Point", "coordinates": [ 6.4, 52.62 ] } },
{ "type": "Feature", "properties": { "name": "SCHRAPVEEN", "cmt": "PROV: DRENTHE, INW: -", "desc": "PROV: DRENTHE, INW: -", "sym": "Medium City" }, "geometry": { "type": "Point", "coordinates": [ 6.45, 52.62 ] } },
{ "type": "Feature", "properties": { "name": "DROGTEROPSLAGEN", "cmt": "PROV: DRENTHE, INW: -", "desc": "PROV: DRENTHE, INW: -", "sym": "Medium City" }, "geometry": { "type": "Point", "coordinates": [ 6.5, 52.62 ] } },
{ "type": "Feature", "properties": { "name": "DE TIPPE", "cmt": "PROV: DRENTHE, INW: -", "desc": "PROV: DRENTHE, INW: -", "sym": "Medium City" }, "geometry": { "type": "Point", "coordinates": [ 6.52, 52.62 ] } },
{ "type": "Feature", "properties": { "name": "PIEPERIJ", "cmt": "PROV: DRENTHE, INW: -", "desc": "PROV: DRENTHE, INW: -", "sym": "Medium City" }, "geometry": { "type": "Point", "coordinates": [ 6.37, 52.63 ] } },
{ "type": "Feature", "properties": { "name": "NOLDE", "cmt": "PROV: DRENTHE, INW: -", "desc": "PROV: DRENTHE, INW: -", "sym": "Medium City" }, "geometry": { "type": "Point", "coordinates": [ 6.42, 52.63 ] } },
{ "type": "Feature", "properties": { "name": "LINDE", "cmt": "PROV: DRENTHE, INW: -", "desc": "PROV: DRENTHE, INW: -", "sym": "Medium City" }, "geometry": { "type": "Point", "coordinates": [ 6.45, 52.63 ] } },
{ "type": "Feature", "properties": { "name": "VUILE RIETE", "cmt": "PROV: DRENTHE, INW: -", "desc": "PROV: DRENTHE, INW: -", "sym": "Medium City" }, "geometry": { "type": "Point", "coordinates": [ 6.48, 52.63 ] } },
{ "type": "Feature", "properties": { "name": "FORT", "cmt": "PROV: DRENTHE, INW: -", "desc": "PROV: DRENTHE, INW: -", "sym": "Medium City" }, "geometry": { "type": "Point", "coordinates": [ 6.38, 52.65 ] } },
{ "type": "Feature", "properties": { "name": "DROGT", "cmt": "PROV: DRENTHE, INW: -", "desc": "PROV: DRENTHE, INW: -", "sym": "Medium City" }, "geometry": { "type": "Point", "coordinates": [ 6.42, 52.65 ] } },
{ "type": "Feature", "properties": { "name": "SCHOTTERSHUIZEN", "cmt": "PROV: DRENTHE, INW: -", "desc": "PROV: DRENTHE, INW: -", "sym": "Medium City" }, "geometry": { "type": "Point", "coordinates": [ 6.43, 52.65 ] } },
{ "type": "Feature", "properties": { "name": "LINDERVELD", "cmt": "PROV: DRENTHE, INW: -", "desc": "PROV: DRENTHE, INW: -", "sym": "Medium City" }, "geometry": { "type": "Point", "coordinates": [ 6.5, 52.65 ] } },
{ "type": "Feature", "properties": { "name": "BRAAMBERG", "cmt": "PROV: DRENTHE, INW: -", "desc": "PROV: DRENTHE, INW: -", "sym": "Medium City" }, "geometry": { "type": "Point", "coordinates": [ 6.52, 52.65 ] } },
{ "type": "Feature", "properties": { "name": "'T KLOOSTER", "cmt": "PROV: DRENTHE, INW: -", "desc": "PROV: DRENTHE, INW: -", "sym": "Medium City" }, "geometry": { "type": "Point", "coordinates": [ 6.72, 52.65 ] } },
{ "type": "Feature", "properties": { "name": "WIJERSWOLD", "cmt": "PROV: DRENTHE, INW: -", "desc": "PROV: DRENTHE, INW: -", "sym": "Medium City" }, "geometry": { "type": "Point", "coordinates": [ 6.82, 52.65 ] } },
{ "type": "Feature", "properties": { "name": "VLIEGHUIS", "cmt": "PROV: DRENTHE, INW: -", "desc": "PROV: DRENTHE, INW: -", "sym": "Medium City" }, "geometry": { "type": "Point", "coordinates": [ 6.83, 52.65 ] } },
{ "type": "Feature", "properties": { "name": "OOSTERSE BOS", "cmt": "PROV: DRENTHE, INW: -", "desc": "PROV: DRENTHE, INW: -", "sym": "Medium City" }, "geometry": { "type": "Point", "coordinates": [ 6.92, 52.65 ] } },
{ "type": "Feature", "properties": { "name": "KOELVEEN", "cmt": "PROV: DRENTHE, INW: -", "desc": "PROV: DRENTHE, INW: -", "sym": "Medium City" }, "geometry": { "type": "Point", "coordinates": [ 6.93, 52.65 ] } },
{ "type": "Feature", "properties": { "name": "NIEUW-SCHOONEBEKERVELD", "cmt": "PROV: DRENTHE, INW: -", "desc": "PROV: DRENTHE, INW: -", "sym": "Medium City" }, "geometry": { "type": "Point", "coordinates": [ 6.98, 52.65 ] } },
{ "type": "Feature", "properties": { "name": "MIDDENDORP", "cmt": "PROV: DRENTHE, INW: -", "desc": "PROV: DRENTHE, INW: -", "sym": "Medium City" }, "geometry": { "type": "Point", "coordinates": [ 7.02, 52.65 ] } },
{ "type": "Feature", "properties": { "name": "WIJK", "cmt": "PROV: DRENTHE, INW: -", "desc": "PROV: DRENTHE, INW: -", "sym": "Medium City" }, "geometry": { "type": "Point", "coordinates": [ 6.28, 52.67 ] } },
{ "type": "Feature", "properties": { "name": "OOSTERWIJK", "cmt": "PROV: DRENTHE, INW: -", "desc": "PROV: DRENTHE, INW: -", "sym": "Medium City" }, "geometry": { "type": "Point", "coordinates": [ 6.3, 52.67 ] } },
{ "type": "Feature", "properties": { "name": "HALLWEIDE", "cmt": "PROV: DRENTHE, INW: -", "desc": "PROV: DRENTHE, INW: -", "sym": "Medium City" }, "geometry": { "type": "Point", "coordinates": [ 6.32, 52.67 ] } },
{ "type": "Feature", "properties": { "name": "STAPEL", "cmt": "PROV: DRENTHE, INW: -", "desc": "PROV: DRENTHE, INW: -", "sym": "Medium City" }, "geometry": { "type": "Point", "coordinates": [ 6.33, 52.67 ] } },
{ "type": "Feature", "properties": { "name": "VENINGEN", "cmt": "PROV: DRENTHE, INW: -", "desc": "PROV: DRENTHE, INW: -", "sym": "Medium City" }, "geometry": { "type": "Point", "coordinates": [ 6.37, 52.67 ] } },
{ "type": "Feature", "properties": { "name": "MIDDELVEEN", "cmt": "PROV: DRENTHE, INW: -", "desc": "PROV: DRENTHE, INW: -", "sym": "Medium City" }, "geometry": { "type": "Point", "coordinates": [ 6.42, 52.67 ] } },
{ "type": "Feature", "properties": { "name": "WEMMENHOVE", "cmt": "PROV: DRENTHE, INW: -", "desc": "PROV: DRENTHE, INW: -", "sym": "Medium City" }, "geometry": { "type": "Point", "coordinates": [ 6.43, 52.67 ] } },
{ "type": "Feature", "properties": { "name": "KERKENVELD", "cmt": "PROV: DRENTHE, INW: -", "desc": "PROV: DRENTHE, INW: -", "sym": "Medium City" }, "geometry": { "type": "Point", "coordinates": [ 6.5, 52.67 ] } },
{ "type": "Feature", "properties": { "name": "MOSCOU", "cmt": "PROV: DRENTHE, INW: -", "desc": "PROV: DRENTHE, INW: -", "sym": "Medium City" }, "geometry": { "type": "Point", "coordinates": [ 6.53, 52.67 ] } },
{ "type": "Feature", "properties": { "name": "NIEUWE KRIM", "cmt": "PROV: DRENTHE, INW: -", "desc": "PROV: DRENTHE, INW: -", "sym": "Medium City" }, "geometry": { "type": "Point", "coordinates": [ 6.65, 52.67 ] } },
{ "type": "Feature", "properties": { "name": "STEENWIJKSMOER", "cmt": "PROV: DRENTHE, INW: -", "desc": "PROV: DRENTHE, INW: -", "sym": "Medium City" }, "geometry": { "type": "Point", "coordinates": [ 6.7, 52.67 ] } },
{ "type": "Feature", "properties": { "name": "PIKVELD", "cmt": "PROV: DRENTHE, INW: -", "desc": "PROV: DRENTHE, INW: -", "sym": "Medium City" }, "geometry": { "type": "Point", "coordinates": [ 6.75, 52.67 ] } },
{ "type": "Feature", "properties": { "name": "PADHUIS", "cmt": "PROV: DRENTHE, INW: -", "desc": "PROV: DRENTHE, INW: -", "sym": "Medium City" }, "geometry": { "type": "Point", "coordinates": [ 6.85, 52.67 ] } },
{ "type": "Feature", "properties": { "name": "WESTERSE BOS", "cmt": "PROV: DRENTHE, INW: -", "desc": "PROV: DRENTHE, INW: -", "sym": "Medium City" }, "geometry": { "type": "Point", "coordinates": [ 6.87, 52.67 ] } },
{ "type": "Feature", "properties": { "name": "SCHOONEBEEK", "cmt": "PROV: DRENTHE, INW: -", "desc": "PROV: DRENTHE, INW: -", "sym": "Medium City" }, "geometry": { "type": "Point", "coordinates": [ 6.88, 52.67 ] } },
{ "type": "Feature", "properties": { "name": "MIDDENDORP0", "cmt": "PROV: DRENTHE, INW: -", "desc": "PROV: DRENTHE, INW: -", "sym": "Medium City" }, "geometry": { "type": "Point", "coordinates": [ 6.9, 52.67 ] } },
{ "type": "Feature", "properties": { "name": "WEITEVEEN", "cmt": "PROV: DRENTHE, INW: -", "desc": "PROV: DRENTHE, INW: -", "sym": "Medium City" }, "geometry": { "type": "Point", "coordinates": [ 7.0, 52.67 ] } },
{ "type": "Feature", "properties": { "name": "MOESPOT", "cmt": "PROV: DRENTHE, INW: -", "desc": "PROV: DRENTHE, INW: -", "sym": "Medium City" }, "geometry": { "type": "Point", "coordinates": [ 5.97, 52.68 ] } },
{ "type": "Feature", "properties": { "name": "SCHIPHORST", "cmt": "PROV: DRENTHE, INW: -", "desc": "PROV: DRENTHE, INW: -", "sym": "Medium City" }, "geometry": { "type": "Point", "coordinates": [ 6.25, 52.68 ] } },
{ "type": "Feature", "properties": { "name": "ROGAT", "cmt": "PROV: DRENTHE, INW: -", "desc": "PROV: DRENTHE, INW: -", "sym": "Medium City" }, "geometry": { "type": "Point", "coordinates": [ 6.27, 52.68 ] } },
{ "type": "Feature", "properties": { "name": "NOORDWIJK", "cmt": "PROV: DRENTHE, INW: ONBEKEND", "desc": "PROV: DRENTHE, INW: ONBEKEND", "sym": "Medium City" }, "geometry": { "type": "Point", "coordinates": [ 6.3, 52.68 ] } },
{ "type": "Feature", "properties": { "name": "HOOGE LINTHORST", "cmt": "PROV: DRENTHE, INW: -", "desc": "PROV: DRENTHE, INW: -", "sym": "Medium City" }, "geometry": { "type": "Point", "coordinates": [ 6.32, 52.68 ] } },
{ "type": "Feature", "properties": { "name": "OUD VEENINGEN", "cmt": "PROV: DRENTHE, INW: -", "desc": "PROV: DRENTHE, INW: -", "sym": "Medium City" }, "geometry": { "type": "Point", "coordinates": [ 6.37, 52.68 ] } },
{ "type": "Feature", "properties": { "name": "DE STUW", "cmt": "PROV: DRENTHE, INW: -", "desc": "PROV: DRENTHE, INW: -", "sym": "Medium City" }, "geometry": { "type": "Point", "coordinates": [ 6.42, 52.68 ] } },
{ "type": "Feature", "properties": { "name": "ZUIDWOLDE", "cmt": "PROV: DRENTHE, INW: -", "desc": "PROV: DRENTHE, INW: -", "sym": "Medium City" }, "geometry": { "type": "Point", "coordinates": [ 6.43, 52.68 ] } },
{ "type": "Feature", "properties": { "name": "ALTEVEER", "cmt": "PROV: DRENTHE, INW: -", "desc": "PROV: DRENTHE, INW: -", "sym": "Medium City" }, "geometry": { "type": "Point", "coordinates": [ 6.48, 52.68 ] } },
{ "type": "Feature", "properties": { "name": "ZUIDEROPGAANDE", "cmt": "PROV: DRENTHE, INW: -", "desc": "PROV: DRENTHE, INW: -", "sym": "Medium City" }, "geometry": { "type": "Point", "coordinates": [ 6.53, 52.68 ] } },
{ "type": "Feature", "properties": { "name": "ELIM", "cmt": "PROV: DRENTHE, INW: -", "desc": "PROV: DRENTHE, INW: -", "sym": "Medium City" }, "geometry": { "type": "Point", "coordinates": [ 6.58, 52.68 ] } },
{ "type": "Feature", "properties": { "name": "DALEREND", "cmt": "PROV: DRENTHE, INW: -", "desc": "PROV: DRENTHE, INW: -", "sym": "Medium City" }, "geometry": { "type": "Point", "coordinates": [ 6.62, 52.68 ] } },
{ "type": "Feature", "properties": { "name": "DALERPEEL", "cmt": "PROV: DRENTHE, INW: -", "desc": "PROV: DRENTHE, INW: -", "sym": "Medium City" }, "geometry": { "type": "Point", "coordinates": [ 6.67, 52.68 ] } },
{ "type": "Feature", "properties": { "name": "VOSSEBELT", "cmt": "PROV: DRENTHE, INW: -", "desc": "PROV: DRENTHE, INW: -", "sym": "Medium City" }, "geometry": { "type": "Point", "coordinates": [ 6.7, 52.68 ] } },
{ "type": "Feature", "properties": { "name": "HOOGEHAAR", "cmt": "PROV: DRENTHE, INW: -", "desc": "PROV: DRENTHE, INW: -", "sym": "Medium City" }, "geometry": { "type": "Point", "coordinates": [ 6.72, 52.68 ] } },
{ "type": "Feature", "properties": { "name": "DE BENTE", "cmt": "PROV: DRENTHE, INW: -", "desc": "PROV: DRENTHE, INW: -", "sym": "Medium City" }, "geometry": { "type": "Point", "coordinates": [ 6.75, 52.68 ] } },
{ "type": "Feature", "properties": { "name": "DALERVEEN", "cmt": "PROV: DRENTHE, INW: -", "desc": "PROV: DRENTHE, INW: -", "sym": "Medium City" }, "geometry": { "type": "Point", "coordinates": [ 6.82, 52.68 ] } },
{ "type": "Feature", "properties": { "name": "STIELTJESKANAAL", "cmt": "PROV: DRENTHE, INW: -", "desc": "PROV: DRENTHE, INW: -", "sym": "Medium City" }, "geometry": { "type": "Point", "coordinates": [ 6.83, 52.68 ] } },
{ "type": "Feature", "properties": { "name": "LEENDERS", "cmt": "PROV: DRENTHE, INW: -", "desc": "PROV: DRENTHE, INW: -", "sym": "Medium City" }, "geometry": { "type": "Point", "coordinates": [ 6.17, 52.7 ] } },
{ "type": "Feature", "properties": { "name": "MEPPEL", "cmt": "PROV: DRENTHE, INW: 30221", "desc": "PROV: DRENTHE, INW: 30221", "sym": "Medium City" }, "geometry": { "type": "Point", "coordinates": [ 6.2, 52.7 ] } },
{ "type": "Feature", "properties": { "name": "OOSTERBOER", "cmt": "PROV: DRENTHE, INW: -", "desc": "PROV: DRENTHE, INW: -", "sym": "Medium City" }, "geometry": { "type": "Point", "coordinates": [ 6.22, 52.7 ] } },
{ "type": "Feature", "properties": { "name": "BROEKHUIZEN", "cmt": "PROV: DRENTHE, INW: -", "desc": "PROV: DRENTHE, INW: -", "sym": "Medium City" }, "geometry": { "type": "Point", "coordinates": [ 6.27, 52.7 ] } },
{ "type": "Feature", "properties": { "name": "KOEKANGE", "cmt": "PROV: DRENTHE, INW: -", "desc": "PROV: DRENTHE, INW: -", "sym": "Medium City" }, "geometry": { "type": "Point", "coordinates": [ 6.32, 52.7 ] } },
{ "type": "Feature", "properties": { "name": "STRUIKBERG", "cmt": "PROV: DRENTHE, INW: -", "desc": "PROV: DRENTHE, INW: -", "sym": "Medium City" }, "geometry": { "type": "Point", "coordinates": [ 6.35, 52.7 ] } },
{ "type": "Feature", "properties": { "name": "NIJSTAD", "cmt": "PROV: DRENTHE, INW: -", "desc": "PROV: DRENTHE, INW: -", "sym": "Medium City" }, "geometry": { "type": "Point", "coordinates": [ 6.42, 52.7 ] } },
{ "type": "Feature", "properties": { "name": "TEN-ARLOO", "cmt": "PROV: DRENTHE, INW: -", "desc": "PROV: DRENTHE, INW: -", "sym": "Medium City" }, "geometry": { "type": "Point", "coordinates": [ 6.43, 52.7 ] } },
{ "type": "Feature", "properties": { "name": "HOLLANDSCHEVELD", "cmt": "PROV: DRENTHE, INW: -", "desc": "PROV: DRENTHE, INW: -", "sym": "Medium City" }, "geometry": { "type": "Point", "coordinates": [ 6.53, 52.7 ] } },
{ "type": "Feature", "properties": { "name": "NIEUWLANDE", "cmt": "PROV: DRENTHE, INW: -", "desc": "PROV: DRENTHE, INW: -", "sym": "Medium City" }, "geometry": { "type": "Point", "coordinates": [ 6.62, 52.7 ] } },
{ "type": "Feature", "properties": { "name": "VEENHUIZEN", "cmt": "PROV: DRENTHE, INW: -", "desc": "PROV: DRENTHE, INW: -", "sym": "Medium City" }, "geometry": { "type": "Point", "coordinates": [ 6.7, 52.7 ] } },
{ "type": "Feature", "properties": { "name": "DALEN", "cmt": "PROV: DRENTHE, INW: -", "desc": "PROV: DRENTHE, INW: -", "sym": "Medium City" }, "geometry": { "type": "Point", "coordinates": [ 6.75, 52.7 ] } },
{ "type": "Feature", "properties": { "name": "DE HAAR", "cmt": "PROV: DRENTHE, INW: -", "desc": "PROV: DRENTHE, INW: -", "sym": "Medium City" }, "geometry": { "type": "Point", "coordinates": [ 6.8, 52.7 ] } },
{ "type": "Feature", "properties": { "name": "SCHIMMELARIJ", "cmt": "PROV: DRENTHE, INW: -", "desc": "PROV: DRENTHE, INW: -", "sym": "Medium City" }, "geometry": { "type": "Point", "coordinates": [ 6.82, 52.7 ] } },
{ "type": "Feature", "properties": { "name": "ZANDPOL", "cmt": "PROV: DRENTHE, INW: -", "desc": "PROV: DRENTHE, INW: -", "sym": "Medium City" }, "geometry": { "type": "Point", "coordinates": [ 6.87, 52.7 ] } },
{ "type": "Feature", "properties": { "name": "AMSTERDAMSEVELD", "cmt": "PROV: DRENTHE, INW: -", "desc": "PROV: DRENTHE, INW: -", "sym": "Medium City" }, "geometry": { "type": "Point", "coordinates": [ 6.92, 52.7 ] } },
{ "type": "Feature", "properties": { "name": "SCHUTWIJK", "cmt": "PROV: DRENTHE, INW: -", "desc": "PROV: DRENTHE, INW: -", "sym": "Medium City" }, "geometry": { "type": "Point", "coordinates": [ 6.97, 52.7 ] } },
{ "type": "Feature", "properties": { "name": "BARGER-OOSTERVEEN", "cmt": "PROV: DRENTHE, INW: -", "desc": "PROV: DRENTHE, INW: -", "sym": "Medium City" }, "geometry": { "type": "Point", "coordinates": [ 6.98, 52.7 ] } },
{ "type": "Feature", "properties": { "name": "KOLDERVEEN", "cmt": "PROV: DRENTHE, INW: -", "desc": "PROV: DRENTHE, INW: -", "sym": "Medium City" }, "geometry": { "type": "Point", "coordinates": [ 6.15, 52.72 ] } },
{ "type": "Feature", "properties": { "name": "KRALOO", "cmt": "PROV: DRENTHE, INW: -", "desc": "PROV: DRENTHE, INW: -", "sym": "Medium City" }, "geometry": { "type": "Point", "coordinates": [ 6.23, 52.72 ] } },
{ "type": "Feature", "properties": { "name": "RUINERWOLD", "cmt": "PROV: DRENTHE, INW: -", "desc": "PROV: DRENTHE, INW: -", "sym": "Medium City" }, "geometry": { "type": "Point", "coordinates": [ 6.25, 52.72 ] } },
{ "type": "Feature", "properties": { "name": "BERGHUIZEN", "cmt": "PROV: DRENTHE, INW: -", "desc": "PROV: DRENTHE, INW: -", "sym": "Medium City" }, "geometry": { "type": "Point", "coordinates": [ 6.28, 52.72 ] } },
{ "type": "Feature", "properties": { "name": "KOEKANGERVELD", "cmt": "PROV: DRENTHE, INW: -", "desc": "PROV: DRENTHE, INW: -", "sym": "Medium City" }, "geometry": { "type": "Point", "coordinates": [ 6.33, 52.72 ] } },
{ "type": "Feature", "properties": { "name": "ECHTEN", "cmt": "PROV: DRENTHE, INW: -", "desc": "PROV: DRENTHE, INW: -", "sym": "Medium City" }, "geometry": { "type": "Point", "coordinates": [ 6.4, 52.72 ] } },
{ "type": "Feature", "properties": { "name": "DE WEIDE", "cmt": "PROV: DRENTHE, INW: -", "desc": "PROV: DRENTHE, INW: -", "sym": "Medium City" }, "geometry": { "type": "Point", "coordinates": [ 6.45, 52.72 ] } },
{ "type": "Feature", "properties": { "name": "KRAKEEL", "cmt": "PROV: DRENTHE, INW: -", "desc": "PROV: DRENTHE, INW: -", "sym": "Medium City" }, "geometry": { "type": "Point", "coordinates": [ 6.52, 52.72 ] } },
{ "type": "Feature", "properties": { "name": "NOORDSCHESCHUT", "cmt": "PROV: DRENTHE, INW: -", "desc": "PROV: DRENTHE, INW: -", "sym": "Medium City" }, "geometry": { "type": "Point", "coordinates": [ 6.53, 52.72 ] } },
{ "type": "Feature", "properties": { "name": "NIEUW-ZWINDEREN", "cmt": "PROV: DRENTHE, INW: -", "desc": "PROV: DRENTHE, INW: -", "sym": "Medium City" }, "geometry": { "type": "Point", "coordinates": [ 6.67, 52.72 ] } },
{ "type": "Feature", "properties": { "name": "WACHTUM", "cmt": "PROV: DRENTHE, INW: -", "desc": "PROV: DRENTHE, INW: -", "sym": "Medium City" }, "geometry": { "type": "Point", "coordinates": [ 6.75, 52.72 ] } },
{ "type": "Feature", "properties": { "name": "ELDIJK", "cmt": "PROV: DRENTHE, INW: -", "desc": "PROV: DRENTHE, INW: -", "sym": "Medium City" }, "geometry": { "type": "Point", "coordinates": [ 6.78, 52.72 ] } },
{ "type": "Feature", "properties": { "name": "HOLSLOOT", "cmt": "PROV: DRENTHE, INW: -", "desc": "PROV: DRENTHE, INW: -", "sym": "Medium City" }, "geometry": { "type": "Point", "coordinates": [ 6.8, 52.72 ] } },
{ "type": "Feature", "properties": { "name": "VEENOORD", "cmt": "PROV: DRENTHE, INW: -", "desc": "PROV: DRENTHE, INW: -", "sym": "Medium City" }, "geometry": { "type": "Point", "coordinates": [ 6.85, 52.72 ] } },
{ "type": "Feature", "properties": { "name": "NIEUW-AMSTERDAM", "cmt": "PROV: DRENTHE, INW: -", "desc": "PROV: DRENTHE, INW: -", "sym": "Medium City" }, "geometry": { "type": "Point", "coordinates": [ 6.87, 52.72 ] } },
{ "type": "Feature", "properties": { "name": "ERICA", "cmt": "PROV: DRENTHE, INW: -", "desc": "PROV: DRENTHE, INW: -", "sym": "Medium City" }, "geometry": { "type": "Point", "coordinates": [ 6.93, 52.72 ] } },
{ "type": "Feature", "properties": { "name": "ZWARTEMEER", "cmt": "PROV: DRENTHE, INW: -", "desc": "PROV: DRENTHE, INW: -", "sym": "Medium City" }, "geometry": { "type": "Point", "coordinates": [ 7.05, 52.72 ] } },
{ "type": "Feature", "properties": { "name": "NIJEVEEN", "cmt": "PROV: DRENTHE, INW: -", "desc": "PROV: DRENTHE, INW: -", "sym": "Medium City" }, "geometry": { "type": "Point", "coordinates": [ 6.17, 52.73 ] } },
{ "type": "Feature", "properties": { "name": "NIJENTAP", "cmt": "PROV: DRENTHE, INW: -", "desc": "PROV: DRENTHE, INW: -", "sym": "Medium City" }, "geometry": { "type": "Point", "coordinates": [ 6.22, 52.73 ] } },
{ "type": "Feature", "properties": { "name": "DIJKHUIZEN", "cmt": "PROV: DRENTHE, INW: -", "desc": "PROV: DRENTHE, INW: -", "sym": "Medium City" }, "geometry": { "type": "Point", "coordinates": [ 6.27, 52.73 ] } },
{ "type": "Feature", "properties": { "name": "OOSTEINDE", "cmt": "PROV: DRENTHE, INW: -", "desc": "PROV: DRENTHE, INW: -", "sym": "Medium City" }, "geometry": { "type": "Point", "coordinates": [ 6.28, 52.73 ] } },
{ "type": "Feature", "properties": { "name": "RUINERWEIDE", "cmt": "PROV: DRENTHE, INW: -", "desc": "PROV: DRENTHE, INW: -", "sym": "Medium City" }, "geometry": { "type": "Point", "coordinates": [ 6.33, 52.73 ] } },
{ "type": "Feature", "properties": { "name": "KALENBERG", "cmt": "PROV: DRENTHE, INW: -", "desc": "PROV: DRENTHE, INW: -", "sym": "Medium City" }, "geometry": { "type": "Point", "coordinates": [ 6.43, 52.73 ] } },
{ "type": "Feature", "properties": { "name": "FLUITENBERG", "cmt": "PROV: DRENTHE, INW: -", "desc": "PROV: DRENTHE, INW: -", "sym": "Medium City" }, "geometry": { "type": "Point", "coordinates": [ 6.45, 52.73 ] } },
{ "type": "Feature", "properties": { "name": "HOOGEVEEN", "cmt": "PROV: DRENTHE, INW: 53186", "desc": "PROV: DRENTHE, INW: 53186", "sym": "Medium City" }, "geometry": { "type": "Point", "coordinates": [ 6.48, 52.73 ] } },
{ "type": "Feature", "properties": { "name": "STADTERIJ", "cmt": "PROV: DRENTHE, INW: -", "desc": "PROV: DRENTHE, INW: -", "sym": "Medium City" }, "geometry": { "type": "Point", "coordinates": [ 6.5, 52.73 ] } },
{ "type": "Feature", "properties": { "name": "ACHTEROM", "cmt": "PROV: DRENTHE, INW: -", "desc": "PROV: DRENTHE, INW: -", "sym": "Medium City" }, "geometry": { "type": "Point", "coordinates": [ 6.52, 52.73 ] } },
{ "type": "Feature", "properties": { "name": "'T NOORDEN", "cmt": "PROV: DRENTHE, INW: -", "desc": "PROV: DRENTHE, INW: -", "sym": "Medium City" }, "geometry": { "type": "Point", "coordinates": [ 6.57, 52.73 ] } },
{ "type": "Feature", "properties": { "name": "LANGERAK", "cmt": "PROV: DRENTHE, INW: -", "desc": "PROV: DRENTHE, INW: -", "sym": "Medium City" }, "geometry": { "type": "Point", "coordinates": [ 6.62, 52.73 ] } },
{ "type": "Feature", "properties": { "name": "GEESBRUG", "cmt": "PROV: DRENTHE, INW: -", "desc": "PROV: DRENTHE, INW: -", "sym": "Medium City" }, "geometry": { "type": "Point", "coordinates": [ 6.63, 52.73 ] } },
{ "type": "Feature", "properties": { "name": "ZWINDEREN", "cmt": "PROV: DRENTHE, INW: -", "desc": "PROV: DRENTHE, INW: -", "sym": "Medium City" }, "geometry": { "type": "Point", "coordinates": [ 6.68, 52.73 ] } },
{ "type": "Feature", "properties": { "name": "GREVENBERG", "cmt": "PROV: DRENTHE, INW: -", "desc": "PROV: DRENTHE, INW: -", "sym": "Medium City" }, "geometry": { "type": "Point", "coordinates": [ 6.75, 52.73 ] } },
{ "type": "Feature", "properties": { "name": "ERMERVEEN", "cmt": "PROV: DRENTHE, INW: -", "desc": "PROV: DRENTHE, INW: -", "sym": "Medium City" }, "geometry": { "type": "Point", "coordinates": [ 6.85, 52.73 ] } },
{ "type": "Feature", "properties": { "name": "KLAZIENAVEEN", "cmt": "PROV: DRENTHE, INW: -", "desc": "PROV: DRENTHE, INW: -", "sym": "Medium City" }, "geometry": { "type": "Point", "coordinates": [ 7.0, 52.73 ] } },
{ "type": "Feature", "properties": { "name": "KOLDERVEENSE BOVENBOER", "cmt": "PROV: DRENTHE, INW: -", "desc": "PROV: DRENTHE, INW: -", "sym": "Medium City" }, "geometry": { "type": "Point", "coordinates": [ 6.15, 52.75 ] } },
{ "type": "Feature", "properties": { "name": "NIJEVEENSE BOVENBOER", "cmt": "PROV: DRENTHE, INW: -", "desc": "PROV: DRENTHE, INW: -", "sym": "Medium City" }, "geometry": { "type": "Point", "coordinates": [ 6.18, 52.75 ] } },
{ "type": "Feature", "properties": { "name": "VEENDIJK", "cmt": "PROV: DRENTHE, INW: -", "desc": "PROV: DRENTHE, INW: -", "sym": "Medium City" }, "geometry": { "type": "Point", "coordinates": [ 6.2, 52.75 ] } },
{ "type": "Feature", "properties": { "name": "EURZINGE", "cmt": "PROV: DRENTHE, INW: -", "desc": "PROV: DRENTHE, INW: -", "sym": "Medium City" }, "geometry": { "type": "Point", "coordinates": [ 6.22, 52.75 ] } },
{ "type": "Feature", "properties": { "name": "OLDENHAVE", "cmt": "PROV: DRENTHE, INW: -", "desc": "PROV: DRENTHE, INW: -", "sym": "Medium City" }, "geometry": { "type": "Point", "coordinates": [ 6.33, 52.75 ] } },
{ "type": "Feature", "properties": { "name": "HEES", "cmt": "PROV: DRENTHE, INW: -", "desc": "PROV: DRENTHE, INW: -", "sym": "Medium City" }, "geometry": { "type": "Point", "coordinates": [ 6.37, 52.75 ] } },
{ "type": "Feature", "properties": { "name": "GIJSSELTE", "cmt": "PROV: DRENTHE, INW: -", "desc": "PROV: DRENTHE, INW: -", "sym": "Medium City" }, "geometry": { "type": "Point", "coordinates": [ 6.42, 52.75 ] } },
{ "type": "Feature", "properties": { "name": "STUIFZAND", "cmt": "PROV: DRENTHE, INW: -", "desc": "PROV: DRENTHE, INW: -", "sym": "Medium City" }, "geometry": { "type": "Point", "coordinates": [ 6.5, 52.75 ] } },
{ "type": "Feature", "properties": { "name": "SIBERIE", "cmt": "PROV: DRENTHE, INW: -", "desc": "PROV: DRENTHE, INW: -", "sym": "Medium City" }, "geometry": { "type": "Point", "coordinates": [ 6.53, 52.75 ] } },
{ "type": "Feature", "properties": { "name": "TIENDEVEEN", "cmt": "PROV: DRENTHE, INW: -", "desc": "PROV: DRENTHE, INW: -", "sym": "Medium City" }, "geometry": { "type": "Point", "coordinates": [ 6.55, 52.75 ] } },
{ "type": "Feature", "properties": { "name": "GEES", "cmt": "PROV: DRENTHE, INW: -", "desc": "PROV: DRENTHE, INW: -", "sym": "Medium City" }, "geometry": { "type": "Point", "coordinates": [ 6.68, 52.75 ] } },
{ "type": "Feature", "properties": { "name": "OOSTERHESSELEN", "cmt": "PROV: DRENTHE, INW: -", "desc": "PROV: DRENTHE, INW: -", "sym": "Medium City" }, "geometry": { "type": "Point", "coordinates": [ 6.73, 52.75 ] } },
{ "type": "Feature", "properties": { "name": "ERM", "cmt": "PROV: DRENTHE, INW: -", "desc": "PROV: DRENTHE, INW: -", "sym": "Medium City" }, "geometry": { "type": "Point", "coordinates": [ 6.82, 52.75 ] } },
{ "type": "Feature", "properties": { "name": "ACHTERSTE ERM", "cmt": "PROV: DRENTHE, INW: -", "desc": "PROV: DRENTHE, INW: -", "sym": "Medium City" }, "geometry": { "type": "Point", "coordinates": [ 6.83, 52.75 ] } },
{ "type": "Feature", "properties": { "name": "WILHELMSOORD", "cmt": "PROV: DRENTHE, INW: -", "desc": "PROV: DRENTHE, INW: -", "sym": "Medium City" }, "geometry": { "type": "Point", "coordinates": [ 6.85, 52.75 ] } },
{ "type": "Feature", "properties": { "name": "ZUIDBARGE", "cmt": "PROV: DRENTHE, INW: -", "desc": "PROV: DRENTHE, INW: -", "sym": "Medium City" }, "geometry": { "type": "Point", "coordinates": [ 6.92, 52.75 ] } },
{ "type": "Feature", "properties": { "name": "KOLLINGSVEEN", "cmt": "PROV: DRENTHE, INW: -", "desc": "PROV: DRENTHE, INW: -", "sym": "Medium City" }, "geometry": { "type": "Point", "coordinates": [ 6.93, 52.75 ] } },
{ "type": "Feature", "properties": { "name": "ORANJEDORP", "cmt": "PROV: DRENTHE, INW: -", "desc": "PROV: DRENTHE, INW: -", "sym": "Medium City" }, "geometry": { "type": "Point", "coordinates": [ 6.95, 52.75 ] } },
{ "type": "Feature", "properties": { "name": "NIEUW-DORDRECHT", "cmt": "PROV: DRENTHE, INW: -", "desc": "PROV: DRENTHE, INW: -", "sym": "Medium City" }, "geometry": { "type": "Point", "coordinates": [ 6.97, 52.75 ] } },
{ "type": "Feature", "properties": { "name": "BARGER-COMPASCUUM", "cmt": "PROV: DRENTHE, INW: -", "desc": "PROV: DRENTHE, INW: -", "sym": "Medium City" }, "geometry": { "type": "Point", "coordinates": [ 7.03, 52.75 ] } },
{ "type": "Feature", "properties": { "name": "HAVELTERBERG", "cmt": "PROV: DRENTHE, INW: -", "desc": "PROV: DRENTHE, INW: -", "sym": "Medium City" }, "geometry": { "type": "Point", "coordinates": [ 6.18, 52.77 ] } },
{ "type": "Feature", "properties": { "name": "BUSSELTE", "cmt": "PROV: DRENTHE, INW: -", "desc": "PROV: DRENTHE, INW: -", "sym": "Medium City" }, "geometry": { "type": "Point", "coordinates": [ 6.2, 52.77 ] } },
{ "type": "Feature", "properties": { "name": "HAVELTE", "cmt": "PROV: DRENTHE, INW: -", "desc": "PROV: DRENTHE, INW: -", "sym": "Medium City" }, "geometry": { "type": "Point", "coordinates": [ 6.25, 52.77 ] } },
{ "type": "Feature", "properties": { "name": "ARMWEIDE", "cmt": "PROV: DRENTHE, INW: -", "desc": "PROV: DRENTHE, INW: -", "sym": "Medium City" }, "geometry": { "type": "Point", "coordinates": [ 6.32, 52.77 ] } },
{ "type": "Feature", "properties": { "name": "RUINERDIJK", "cmt": "PROV: DRENTHE, INW: -", "desc": "PROV: DRENTHE, INW: -", "sym": "Medium City" }, "geometry": { "type": "Point", "coordinates": [ 6.33, 52.77 ] } },
{ "type": "Feature", "properties": { "name": "RUINEN", "cmt": "PROV: DRENTHE, INW: -", "desc": "PROV: DRENTHE, INW: -", "sym": "Medium City" }, "geometry": { "type": "Point", "coordinates": [ 6.35, 52.77 ] } },
{ "type": "Feature", "properties": { "name": "ENGELAND", "cmt": "PROV: DRENTHE, INW: -", "desc": "PROV: DRENTHE, INW: -", "sym": "Medium City" }, "geometry": { "type": "Point", "coordinates": [ 6.37, 52.77 ] } },
{ "type": "Feature", "properties": { "name": "LEEUWTE", "cmt": "PROV: DRENTHE, INW: -", "desc": "PROV: DRENTHE, INW: -", "sym": "Medium City" }, "geometry": { "type": "Point", "coordinates": [ 6.4, 52.77 ] } },
{ "type": "Feature", "properties": { "name": "PESSE", "cmt": "PROV: DRENTHE, INW: -", "desc": "PROV: DRENTHE, INW: -", "sym": "Medium City" }, "geometry": { "type": "Point", "coordinates": [ 6.45, 52.77 ] } },
{ "type": "Feature", "properties": { "name": "DE MARKE", "cmt": "PROV: DRENTHE, INW: -", "desc": "PROV: DRENTHE, INW: -", "sym": "Medium City" }, "geometry": { "type": "Point", "coordinates": [ 6.47, 52.77 ] } },
{ "type": "Feature", "properties": { "name": "ZWARTSCHAP", "cmt": "PROV: DRENTHE, INW: -", "desc": "PROV: DRENTHE, INW: -", "sym": "Medium City" }, "geometry": { "type": "Point", "coordinates": [ 6.5, 52.77 ] } },
{ "type": "Feature", "properties": { "name": "NIEUW-BALINGE", "cmt": "PROV: DRENTHE, INW: -", "desc": "PROV: DRENTHE, INW: -", "sym": "Medium City" }, "geometry": { "type": "Point", "coordinates": [ 6.6, 52.77 ] } },
{ "type": "Feature", "properties": { "name": "DIPHOORN", "cmt": "PROV: DRENTHE, INW: -", "desc": "PROV: DRENTHE, INW: -", "sym": "Medium City" }, "geometry": { "type": "Point", "coordinates": [ 6.82, 52.77 ] } },
{ "type": "Feature", "properties": { "name": "OEVER", "cmt": "PROV: DRENTHE, INW: -", "desc": "PROV: DRENTHE, INW: -", "sym": "Medium City" }, "geometry": { "type": "Point", "coordinates": [ 6.93, 52.77 ] } },
{ "type": "Feature", "properties": { "name": "BARGER-OOSTERVELD", "cmt": "PROV: DRENTHE, INW: -", "desc": "PROV: DRENTHE, INW: -", "sym": "Medium City" }, "geometry": { "type": "Point", "coordinates": [ 6.97, 52.77 ] } },
{ "type": "Feature", "properties": { "name": "SMEULVEEN", "cmt": "PROV: DRENTHE, INW: -", "desc": "PROV: DRENTHE, INW: -", "sym": "Medium City" }, "geometry": { "type": "Point", "coordinates": [ 7.0, 52.77 ] } },
{ "type": "Feature", "properties": { "name": "DERP", "cmt": "PROV: DRENTHE, INW: -", "desc": "PROV: DRENTHE, INW: -", "sym": "Medium City" }, "geometry": { "type": "Point", "coordinates": [ 6.22, 52.78 ] } },
{ "type": "Feature", "properties": { "name": "UFFELTE", "cmt": "PROV: DRENTHE, INW: -", "desc": "PROV: DRENTHE, INW: -", "sym": "Medium City" }, "geometry": { "type": "Point", "coordinates": [ 6.28, 52.78 ] } },
{ "type": "Feature", "properties": { "name": "RHEEBRUGGEN", "cmt": "PROV: DRENTHE, INW: -", "desc": "PROV: DRENTHE, INW: -", "sym": "Medium City" }, "geometry": { "type": "Point", "coordinates": [ 6.3, 52.78 ] } },
{ "type": "Feature", "properties": { "name": "ANSEN", "cmt": "PROV: DRENTHE, INW: -", "desc": "PROV: DRENTHE, INW: -", "sym": "Medium City" }, "geometry": { "type": "Point", "coordinates": [ 6.33, 52.78 ] } },
{ "type": "Feature", "properties": { "name": "WITTEVEEN", "cmt": "PROV: DRENTHE, INW: -", "desc": "PROV: DRENTHE, INW: -", "sym": "Medium City" }, "geometry": { "type": "Point", "coordinates": [ 6.37, 52.78 ] } },
{ "type": "Feature", "properties": { "name": "ANHOLT", "cmt": "PROV: DRENTHE, INW: -", "desc": "PROV: DRENTHE, INW: -", "sym": "Medium City" }, "geometry": { "type": "Point", "coordinates": [ 6.42, 52.78 ] } },
{ "type": "Feature", "properties": { "name": "KRALOO0", "cmt": "PROV: DRENTHE, INW: -", "desc": "PROV: DRENTHE, INW: -", "sym": "Medium City" }, "geometry": { "type": "Point", "coordinates": [ 6.43, 52.78 ] } },
{ "type": "Feature", "properties": { "name": "NUIL", "cmt": "PROV: DRENTHE, INW: -", "desc": "PROV: DRENTHE, INW: -", "sym": "Medium City" }, "geometry": { "type": "Point", "coordinates": [ 6.45, 52.78 ] } },
{ "type": "Feature", "properties": { "name": "DRIJBER", "cmt": "PROV: DRENTHE, INW: -", "desc": "PROV: DRENTHE, INW: -", "sym": "Medium City" }, "geometry": { "type": "Point", "coordinates": [ 6.53, 52.78 ] } },
{ "type": "Feature", "properties": { "name": "MEPPEN", "cmt": "PROV: DRENTHE, INW: -", "desc": "PROV: DRENTHE, INW: -", "sym": "Medium City" }, "geometry": { "type": "Point", "coordinates": [ 6.7, 52.78 ] } },
{ "type": "Feature", "properties": { "name": "AALDEN", "cmt": "PROV: DRENTHE, INW: -", "desc": "PROV: DRENTHE, INW: -", "sym": "Medium City" }, "geometry": { "type": "Point", "coordinates": [ 6.73, 52.78 ] } },
{ "type": "Feature", "properties": { "name": "BENNEVELD", "cmt": "PROV: DRENTHE, INW: -", "desc": "PROV: DRENTHE, INW: -", "sym": "Medium City" }, "geometry": { "type": "Point", "coordinates": [ 6.75, 52.78 ] } },
{ "type": "Feature", "properties": { "name": "SLEEN", "cmt": "PROV: DRENTHE, INW: -", "desc": "PROV: DRENTHE, INW: -", "sym": "Medium City" }, "geometry": { "type": "Point", "coordinates": [ 6.8, 52.78 ] } },
{ "type": "Feature", "properties": { "name": "NOORD-SLEEN", "cmt": "PROV: DRENTHE, INW: -", "desc": "PROV: DRENTHE, INW: -", "sym": "Medium City" }, "geometry": { "type": "Point", "coordinates": [ 6.82, 52.78 ] } },
{ "type": "Feature", "properties": { "name": "WESTENESCH", "cmt": "PROV: DRENTHE, INW: -", "desc": "PROV: DRENTHE, INW: -", "sym": "Medium City" }, "geometry": { "type": "Point", "coordinates": [ 6.88, 52.78 ] } },
{ "type": "Feature", "properties": { "name": "EMMEN", "cmt": "PROV: DRENTHE, INW: 108367", "desc": "PROV: DRENTHE, INW: 108367", "sym": "Medium City" }, "geometry": { "type": "Point", "coordinates": [ 6.9, 52.78 ] } },
{ "type": "Feature", "properties": { "name": "FOXEL", "cmt": "PROV: DRENTHE, INW: -", "desc": "PROV: DRENTHE, INW: -", "sym": "Medium City" }, "geometry": { "type": "Point", "coordinates": [ 7.02, 52.78 ] } },
{ "type": "Feature", "properties": { "name": "HET SCHIER", "cmt": "PROV: DRENTHE, INW: -", "desc": "PROV: DRENTHE, INW: -", "sym": "Medium City" }, "geometry": { "type": "Point", "coordinates": [ 6.22, 52.8 ] } },
{ "type": "Feature", "properties": { "name": "HOLTINGE", "cmt": "PROV: DRENTHE, INW: -", "desc": "PROV: DRENTHE, INW: -", "sym": "Medium City" }, "geometry": { "type": "Point", "coordinates": [ 6.25, 52.8 ] } },
{ "type": "Feature", "properties": { "name": "MANTINGE", "cmt": "PROV: DRENTHE, INW: -", "desc": "PROV: DRENTHE, INW: -", "sym": "Medium City" }, "geometry": { "type": "Point", "coordinates": [ 6.62, 52.8 ] } },
{ "type": "Feature", "properties": { "name": "ZWEELOO", "cmt": "PROV: DRENTHE, INW: -", "desc": "PROV: DRENTHE, INW: -", "sym": "Medium City" }, "geometry": { "type": "Point", "coordinates": [ 6.73, 52.8 ] } },
{ "type": "Feature", "properties": { "name": "EMMERSCHANS", "cmt": "PROV: DRENTHE, INW: -", "desc": "PROV: DRENTHE, INW: -", "sym": "Medium City" }, "geometry": { "type": "Point", "coordinates": [ 6.93, 52.8 ] } },
{ "type": "Feature", "properties": { "name": "SPIER", "cmt": "PROV: DRENTHE, INW: -", "desc": "PROV: DRENTHE, INW: -", "sym": "Medium City" }, "geometry": { "type": "Point", "coordinates": [ 6.47, 52.82 ] } },
{ "type": "Feature", "properties": { "name": "WIJSTER", "cmt": "PROV: DRENTHE, INW: -", "desc": "PROV: DRENTHE, INW: -", "sym": "Medium City" }, "geometry": { "type": "Point", "coordinates": [ 6.52, 52.82 ] } },
{ "type": "Feature", "properties": { "name": "BRUNTINGE", "cmt": "PROV: DRENTHE, INW: -", "desc": "PROV: DRENTHE, INW: -", "sym": "Medium City" }, "geometry": { "type": "Point", "coordinates": [ 6.58, 52.82 ] } },
{ "type": "Feature", "properties": { "name": "GARMINGE", "cmt": "PROV: DRENTHE, INW: -", "desc": "PROV: DRENTHE, INW: -", "sym": "Medium City" }, "geometry": { "type": "Point", "coordinates": [ 6.63, 52.82 ] } },
{ "type": "Feature", "properties": { "name": "BALINGE", "cmt": "PROV: DRENTHE, INW: -", "desc": "PROV: DRENTHE, INW: -", "sym": "Medium City" }, "geometry": { "type": "Point", "coordinates": [ 6.65, 52.82 ] } },
{ "type": "Feature", "properties": { "name": "WITTEVEEN0", "cmt": "PROV: DRENTHE, INW: -", "desc": "PROV: DRENTHE, INW: -", "sym": "Medium City" }, "geometry": { "type": "Point", "coordinates": [ 6.67, 52.82 ] } },
{ "type": "Feature", "properties": { "name": "WEZUP", "cmt": "PROV: DRENTHE, INW: -", "desc": "PROV: DRENTHE, INW: -", "sym": "Medium City" }, "geometry": { "type": "Point", "coordinates": [ 6.72, 52.82 ] } },
{ "type": "Feature", "properties": { "name": "KIBBELVEEN", "cmt": "PROV: DRENTHE, INW: -", "desc": "PROV: DRENTHE, INW: -", "sym": "Medium City" }, "geometry": { "type": "Point", "coordinates": [ 6.82, 52.82 ] } },
{ "type": "Feature", "properties": { "name": "'T HAANTJE", "cmt": "PROV: DRENTHE, INW: -", "desc": "PROV: DRENTHE, INW: -", "sym": "Medium City" }, "geometry": { "type": "Point", "coordinates": [ 6.83, 52.82 ] } },
{ "type": "Feature", "properties": { "name": "WEERDINGE", "cmt": "PROV: DRENTHE, INW: -", "desc": "PROV: DRENTHE, INW: -", "sym": "Medium City" }, "geometry": { "type": "Point", "coordinates": [ 6.92, 52.82 ] } },
{ "type": "Feature", "properties": { "name": "ERFSCHEIDENVEEN", "cmt": "PROV: DRENTHE, INW: -", "desc": "PROV: DRENTHE, INW: -", "sym": "Medium City" }, "geometry": { "type": "Point", "coordinates": [ 6.98, 52.82 ] } },
{ "type": "Feature", "properties": { "name": "EMMER-COMPASCUUM", "cmt": "PROV: DRENTHE, INW: -", "desc": "PROV: DRENTHE, INW: -", "sym": "Medium City" }, "geometry": { "type": "Point", "coordinates": [ 7.05, 52.82 ] } },
{ "type": "Feature", "properties": { "name": "MUNSTERSCHEVELD", "cmt": "PROV: DRENTHE, INW: -", "desc": "PROV: DRENTHE, INW: -", "sym": "Medium City" }, "geometry": { "type": "Point", "coordinates": [ 7.07, 52.82 ] } },
{ "type": "Feature", "properties": { "name": "NIJENSLEEK", "cmt": "PROV: DRENTHE, INW: -", "desc": "PROV: DRENTHE, INW: -", "sym": "Medium City" }, "geometry": { "type": "Point", "coordinates": [ 6.17, 52.83 ] } },
{ "type": "Feature", "properties": { "name": "WAPSERVEEN", "cmt": "PROV: DRENTHE, INW: -", "desc": "PROV: DRENTHE, INW: -", "sym": "Medium City" }, "geometry": { "type": "Point", "coordinates": [ 6.25, 52.83 ] } },
{ "type": "Feature", "properties": { "name": "HET MOER", "cmt": "PROV: DRENTHE, INW: -", "desc": "PROV: DRENTHE, INW: -", "sym": "Medium City" }, "geometry": { "type": "Point", "coordinates": [ 6.28, 52.83 ] } },
{ "type": "Feature", "properties": { "name": "WITTELTE", "cmt": "PROV: DRENTHE, INW: -", "desc": "PROV: DRENTHE, INW: -", "sym": "Medium City" }, "geometry": { "type": "Point", "coordinates": [ 6.3, 52.83 ] } },
{ "type": "Feature", "properties": { "name": "WESTEINDE", "cmt": "PROV: DRENTHE, INW: -", "desc": "PROV: DRENTHE, INW: -", "sym": "Medium City" }, "geometry": { "type": "Point", "coordinates": [ 6.35, 52.83 ] } },
{ "type": "Feature", "properties": { "name": "DWINGELOO", "cmt": "PROV: DRENTHE, INW: -", "desc": "PROV: DRENTHE, INW: -", "sym": "Medium City" }, "geometry": { "type": "Point", "coordinates": [ 6.37, 52.83 ] } },
{ "type": "Feature", "properties": { "name": "LHEE", "cmt": "PROV: DRENTHE, INW: -", "desc": "PROV: DRENTHE, INW: -", "sym": "Medium City" }, "geometry": { "type": "Point", "coordinates": [ 6.4, 52.83 ] } },
{ "type": "Feature", "properties": { "name": "EURSINGE", "cmt": "PROV: DRENTHE, INW: -", "desc": "PROV: DRENTHE, INW: -", "sym": "Medium City" }, "geometry": { "type": "Point", "coordinates": [ 6.6, 52.83 ] } },
{ "type": "Feature", "properties": { "name": "WEZUPERBRUG", "cmt": "PROV: DRENTHE, INW: -", "desc": "PROV: DRENTHE, INW: -", "sym": "Medium City" }, "geometry": { "type": "Point", "coordinates": [ 6.72, 52.83 ] } },
{ "type": "Feature", "properties": { "name": "KLIJNDIJK", "cmt": "PROV: DRENTHE, INW: -", "desc": "PROV: DRENTHE, INW: -", "sym": "Medium City" }, "geometry": { "type": "Point", "coordinates": [ 6.87, 52.83 ] } },
{ "type": "Feature", "properties": { "name": "ROSWINKEL", "cmt": "PROV: DRENTHE, INW: -", "desc": "PROV: DRENTHE, INW: -", "sym": "Medium City" }, "geometry": { "type": "Point", "coordinates": [ 7.05, 52.83 ] } },
{ "type": "Feature", "properties": { "name": "FREDERIKSOORD", "cmt": "PROV: DRENTHE, INW: -", "desc": "PROV: DRENTHE, INW: -", "sym": "Medium City" }, "geometry": { "type": "Point", "coordinates": [ 6.18, 52.85 ] } },
{ "type": "Feature", "properties": { "name": "VLEDDER", "cmt": "PROV: DRENTHE, INW: -", "desc": "PROV: DRENTHE, INW: -", "sym": "Medium City" }, "geometry": { "type": "Point", "coordinates": [ 6.22, 52.85 ] } },
{ "type": "Feature", "properties": { "name": "VELDHUIZEN", "cmt": "PROV: DRENTHE, INW: -", "desc": "PROV: DRENTHE, INW: -", "sym": "Medium City" }, "geometry": { "type": "Point", "coordinates": [ 6.25, 52.85 ] } },
{ "type": "Feature", "properties": { "name": "WAPSE", "cmt": "PROV: DRENTHE, INW: -", "desc": "PROV: DRENTHE, INW: -", "sym": "Medium City" }, "geometry": { "type": "Point", "coordinates": [ 6.27, 52.85 ] } },
{ "type": "Feature", "properties": { "name": "KALTEREN", "cmt": "PROV: DRENTHE, INW: -", "desc": "PROV: DRENTHE, INW: -", "sym": "Medium City" }, "geometry": { "type": "Point", "coordinates": [ 6.3, 52.85 ] } },
{ "type": "Feature", "properties": { "name": "OLDENDIEVER", "cmt": "PROV: DRENTHE, INW: -", "desc": "PROV: DRENTHE, INW: -", "sym": "Medium City" }, "geometry": { "type": "Point", "coordinates": [ 6.32, 52.85 ] } },
{ "type": "Feature", "properties": { "name": "DIEVERBRUG", "cmt": "PROV: DRENTHE, INW: -", "desc": "PROV: DRENTHE, INW: -", "sym": "Medium City" }, "geometry": { "type": "Point", "coordinates": [ 6.33, 52.85 ] } },
{ "type": "Feature", "properties": { "name": "HOLTLAND", "cmt": "PROV: DRENTHE, INW: -", "desc": "PROV: DRENTHE, INW: -", "sym": "Medium City" }, "geometry": { "type": "Point", "coordinates": [ 6.35, 52.85 ] } },
{ "type": "Feature", "properties": { "name": "MOLENSTAD", "cmt": "PROV: DRENTHE, INW: -", "desc": "PROV: DRENTHE, INW: -", "sym": "Medium City" }, "geometry": { "type": "Point", "coordinates": [ 6.37, 52.85 ] } },
{ "type": "Feature", "properties": { "name": "EEMSTER", "cmt": "PROV: DRENTHE, INW: -", "desc": "PROV: DRENTHE, INW: -", "sym": "Medium City" }, "geometry": { "type": "Point", "coordinates": [ 6.38, 52.85 ] } },
{ "type": "Feature", "properties": { "name": "HOLTIEN", "cmt": "PROV: DRENTHE, INW: -", "desc": "PROV: DRENTHE, INW: -", "sym": "Medium City" }, "geometry": { "type": "Point", "coordinates": [ 6.4, 52.85 ] } },
{ "type": "Feature", "properties": { "name": "LHEEBROEK", "cmt": "PROV: DRENTHE, INW: -", "desc": "PROV: DRENTHE, INW: -", "sym": "Medium City" }, "geometry": { "type": "Point", "coordinates": [ 6.43, 52.85 ] } },
{ "type": "Feature", "properties": { "name": "SMALBROEK", "cmt": "PROV: DRENTHE, INW: -", "desc": "PROV: DRENTHE, INW: -", "sym": "Medium City" }, "geometry": { "type": "Point", "coordinates": [ 6.5, 52.85 ] } },
{ "type": "Feature", "properties": { "name": "TER HORST", "cmt": "PROV: DRENTHE, INW: -", "desc": "PROV: DRENTHE, INW: -", "sym": "Medium City" }, "geometry": { "type": "Point", "coordinates": [ 6.52, 52.85 ] } },
{ "type": "Feature", "properties": { "name": "MAKKUM", "cmt": "PROV: DRENTHE, INW: -", "desc": "PROV: DRENTHE, INW: -", "sym": "Medium City" }, "geometry": { "type": "Point", "coordinates": [ 6.53, 52.85 ] } },
{ "type": "Feature", "properties": { "name": "HOLTHE", "cmt": "PROV: DRENTHE, INW: -", "desc": "PROV: DRENTHE, INW: -", "sym": "Medium City" }, "geometry": { "type": "Point", "coordinates": [ 6.55, 52.85 ] } },
{ "type": "Feature", "properties": { "name": "WESTERBORK", "cmt": "PROV: DRENTHE, INW: -", "desc": "PROV: DRENTHE, INW: -", "sym": "Medium City" }, "geometry": { "type": "Point", "coordinates": [ 6.6, 52.85 ] } },
{ "type": "Feature", "properties": { "name": "ORVELTE", "cmt": "PROV: DRENTHE, INW: -", "desc": "PROV: DRENTHE, INW: -", "sym": "Medium City" }, "geometry": { "type": "Point", "coordinates": [ 6.67, 52.85 ] } },
{ "type": "Feature", "properties": { "name": "SCHOONOORD", "cmt": "PROV: DRENTHE, INW: -", "desc": "PROV: DRENTHE, INW: -", "sym": "Medium City" }, "geometry": { "type": "Point", "coordinates": [ 6.75, 52.85 ] } },
{ "type": "Feature", "properties": { "name": "ODOORNERVEEN", "cmt": "PROV: DRENTHE, INW: -", "desc": "PROV: DRENTHE, INW: -", "sym": "Medium City" }, "geometry": { "type": "Point", "coordinates": [ 6.78, 52.85 ] } },
{ "type": "Feature", "properties": { "name": "ODOORN", "cmt": "PROV: DRENTHE, INW: -", "desc": "PROV: DRENTHE, INW: -", "sym": "Medium City" }, "geometry": { "type": "Point", "coordinates": [ 6.85, 52.85 ] } },
{ "type": "Feature", "properties": { "name": "VALTHE", "cmt": "PROV: DRENTHE, INW: -", "desc": "PROV: DRENTHE, INW: -", "sym": "Medium City" }, "geometry": { "type": "Point", "coordinates": [ 6.9, 52.85 ] } },
{ "type": "Feature", "properties": { "name": "VALTHERBLOKKEN", "cmt": "PROV: DRENTHE, INW: -", "desc": "PROV: DRENTHE, INW: -", "sym": "Medium City" }, "geometry": { "type": "Point", "coordinates": [ 6.92, 52.85 ] } },
{ "type": "Feature", "properties": { "name": "WILHELMINA SOORD", "cmt": "PROV: DRENTHE, INW: -", "desc": "PROV: DRENTHE, INW: -", "sym": "Medium City" }, "geometry": { "type": "Point", "coordinates": [ 6.17, 52.87 ] } },
{ "type": "Feature", "properties": { "name": "VEENHUIZEN0", "cmt": "PROV: DRENTHE, INW: -", "desc": "PROV: DRENTHE, INW: -", "sym": "Medium City" }, "geometry": { "type": "Point", "coordinates": [ 6.27, 52.87 ] } },
{ "type": "Feature", "properties": { "name": "ZOERTE", "cmt": "PROV: DRENTHE, INW: -", "desc": "PROV: DRENTHE, INW: -", "sym": "Medium City" }, "geometry": { "type": "Point", "coordinates": [ 6.28, 52.87 ] } },
{ "type": "Feature", "properties": { "name": "GEEUWENBRUG", "cmt": "PROV: DRENTHE, INW: -", "desc": "PROV: DRENTHE, INW: -", "sym": "Medium City" }, "geometry": { "type": "Point", "coordinates": [ 6.37, 52.87 ] } },
{ "type": "Feature", "properties": { "name": "BOTERVEEN", "cmt": "PROV: DRENTHE, INW: -", "desc": "PROV: DRENTHE, INW: -", "sym": "Medium City" }, "geometry": { "type": "Point", "coordinates": [ 6.38, 52.87 ] } },
{ "type": "Feature", "properties": { "name": "BEILERVAART", "cmt": "PROV: DRENTHE, INW: -", "desc": "PROV: DRENTHE, INW: -", "sym": "Medium City" }, "geometry": { "type": "Point", "coordinates": [ 6.47, 52.87 ] } },
{ "type": "Feature", "properties": { "name": "BRUNSTING", "cmt": "PROV: DRENTHE, INW: -", "desc": "PROV: DRENTHE, INW: -", "sym": "Medium City" }, "geometry": { "type": "Point", "coordinates": [ 6.5, 52.87 ] } },
{ "type": "Feature", "properties": { "name": "BEILEN", "cmt": "PROV: DRENTHE, INW: -", "desc": "PROV: DRENTHE, INW: -", "sym": "Medium City" }, "geometry": { "type": "Point", "coordinates": [ 6.52, 52.87 ] } },
{ "type": "Feature", "properties": { "name": "ALTING", "cmt": "PROV: DRENTHE, INW: -", "desc": "PROV: DRENTHE, INW: -", "sym": "Medium City" }, "geometry": { "type": "Point", "coordinates": [ 6.53, 52.87 ] } },
{ "type": "Feature", "properties": { "name": "KLATERING", "cmt": "PROV: DRENTHE, INW: -", "desc": "PROV: DRENTHE, INW: -", "sym": "Medium City" }, "geometry": { "type": "Point", "coordinates": [ 6.55, 52.87 ] } },
{ "type": "Feature", "properties": { "name": "ZWIGGELTE", "cmt": "PROV: DRENTHE, INW: -", "desc": "PROV: DRENTHE, INW: -", "sym": "Medium City" }, "geometry": { "type": "Point", "coordinates": [ 6.58, 52.87 ] } },
{ "type": "Feature", "properties": { "name": "ZUIDVELD", "cmt": "PROV: DRENTHE, INW: -", "desc": "PROV: DRENTHE, INW: -", "sym": "Medium City" }, "geometry": { "type": "Point", "coordinates": [ 6.63, 52.87 ] } },
{ "type": "Feature", "properties": { "name": "DE KIEL", "cmt": "PROV: DRENTHE, INW: -", "desc": "PROV: DRENTHE, INW: -", "sym": "Medium City" }, "geometry": { "type": "Point", "coordinates": [ 6.75, 52.87 ] } },
{ "type": "Feature", "properties": { "name": "EESERVEEN", "cmt": "PROV: DRENTHE, INW: -", "desc": "PROV: DRENTHE, INW: -", "sym": "Medium City" }, "geometry": { "type": "Point", "coordinates": [ 6.77, 52.87 ] } },
{ "type": "Feature", "properties": { "name": "HUNZEBERGEN", "cmt": "PROV: DRENTHE, INW: -", "desc": "PROV: DRENTHE, INW: -", "sym": "Medium City" }, "geometry": { "type": "Point", "coordinates": [ 6.88, 52.87 ] } },
{ "type": "Feature", "properties": { "name": "NIEUW-WEERDINGE", "cmt": "PROV: DRENTHE, INW: -", "desc": "PROV: DRENTHE, INW: -", "sym": "Medium City" }, "geometry": { "type": "Point", "coordinates": [ 6.98, 52.87 ] } },
{ "type": "Feature", "properties": { "name": "DIKBROEKEN", "cmt": "PROV: DRENTHE, INW: -", "desc": "PROV: DRENTHE, INW: -", "sym": "Medium City" }, "geometry": { "type": "Point", "coordinates": [ 7.0, 52.87 ] } },
{ "type": "Feature", "properties": { "name": "NOORDWOLDE-ZUID", "cmt": "PROV: DRENTHE, INW: -", "desc": "PROV: DRENTHE, INW: -", "sym": "Medium City" }, "geometry": { "type": "Point", "coordinates": [ 6.15, 52.88 ] } },
{ "type": "Feature", "properties": { "name": "VLEDDERVEEN", "cmt": "PROV: DRENTHE, INW: -", "desc": "PROV: DRENTHE, INW: -", "sym": "Medium City" }, "geometry": { "type": "Point", "coordinates": [ 6.2, 52.88 ] } },
{ "type": "Feature", "properties": { "name": "RHEEVELD", "cmt": "PROV: DRENTHE, INW: -", "desc": "PROV: DRENTHE, INW: -", "sym": "Medium City" }, "geometry": { "type": "Point", "coordinates": [ 6.5, 52.88 ] } },
{ "type": "Feature", "properties": { "name": "EURSING", "cmt": "PROV: DRENTHE, INW: -", "desc": "PROV: DRENTHE, INW: -", "sym": "Medium City" }, "geometry": { "type": "Point", "coordinates": [ 6.53, 52.88 ] } },
{ "type": "Feature", "properties": { "name": "ELP", "cmt": "PROV: DRENTHE, INW: -", "desc": "PROV: DRENTHE, INW: -", "sym": "Medium City" }, "geometry": { "type": "Point", "coordinates": [ 6.65, 52.88 ] } },
{ "type": "Feature", "properties": { "name": "EESERGROEN", "cmt": "PROV: DRENTHE, INW: -", "desc": "PROV: DRENTHE, INW: -", "sym": "Medium City" }, "geometry": { "type": "Point", "coordinates": [ 6.78, 52.88 ] } },
{ "type": "Feature", "properties": { "name": "EXLOO", "cmt": "PROV: DRENTHE, INW: -", "desc": "PROV: DRENTHE, INW: -", "sym": "Medium City" }, "geometry": { "type": "Point", "coordinates": [ 6.87, 52.88 ] } },
{ "type": "Feature", "properties": { "name": "BOERMASTREEK", "cmt": "PROV: DRENTHE, INW: -", "desc": "PROV: DRENTHE, INW: -", "sym": "Medium City" }, "geometry": { "type": "Point", "coordinates": [ 6.9, 52.88 ] } },
{ "type": "Feature", "properties": { "name": "VALTHERMOND", "cmt": "PROV: DRENTHE, INW: -", "desc": "PROV: DRENTHE, INW: -", "sym": "Medium City" }, "geometry": { "type": "Point", "coordinates": [ 6.98, 52.88 ] } },
{ "type": "Feature", "properties": { "name": "BOSCHOORD", "cmt": "PROV: DRENTHE, INW: -", "desc": "PROV: DRENTHE, INW: -", "sym": "Medium City" }, "geometry": { "type": "Point", "coordinates": [ 6.23, 52.9 ] } },
{ "type": "Feature", "properties": { "name": "HOOGERSMILDE", "cmt": "PROV: DRENTHE, INW: -", "desc": "PROV: DRENTHE, INW: -", "sym": "Medium City" }, "geometry": { "type": "Point", "coordinates": [ 6.4, 52.9 ] } },
{ "type": "Feature", "properties": { "name": "HIJKEN", "cmt": "PROV: DRENTHE, INW: -", "desc": "PROV: DRENTHE, INW: -", "sym": "Medium City" }, "geometry": { "type": "Point", "coordinates": [ 6.5, 52.9 ] } },
{ "type": "Feature", "properties": { "name": "SCHOONLOO", "cmt": "PROV: DRENTHE, INW: -", "desc": "PROV: DRENTHE, INW: -", "sym": "Medium City" }, "geometry": { "type": "Point", "coordinates": [ 6.7, 52.9 ] } },
{ "type": "Feature", "properties": { "name": "ELLERTSHAAR", "cmt": "PROV: DRENTHE, INW: -", "desc": "PROV: DRENTHE, INW: -", "sym": "Medium City" }, "geometry": { "type": "Point", "coordinates": [ 6.73, 52.9 ] } },
{ "type": "Feature", "properties": { "name": "WESTDORP", "cmt": "PROV: DRENTHE, INW: -", "desc": "PROV: DRENTHE, INW: -", "sym": "Medium City" }, "geometry": { "type": "Point", "coordinates": [ 6.77, 52.9 ] } },
{ "type": "Feature", "properties": { "name": "EXLOERVEEN", "cmt": "PROV: DRENTHE, INW: -", "desc": "PROV: DRENTHE, INW: -", "sym": "Medium City" }, "geometry": { "type": "Point", "coordinates": [ 6.9, 52.9 ] } },
{ "type": "Feature", "properties": { "name": "EXLOERKIJL", "cmt": "PROV: DRENTHE, INW: -", "desc": "PROV: DRENTHE, INW: -", "sym": "Medium City" }, "geometry": { "type": "Point", "coordinates": [ 6.93, 52.9 ] } },
{ "type": "Feature", "properties": { "name": "VALTHERMUSSEL", "cmt": "PROV: DRENTHE, INW: -", "desc": "PROV: DRENTHE, INW: -", "sym": "Medium City" }, "geometry": { "type": "Point", "coordinates": [ 7.02, 52.9 ] } },
{ "type": "Feature", "properties": { "name": "2E VALTHERMOND", "cmt": "PROV: DRENTHE, INW: -", "desc": "PROV: DRENTHE, INW: -", "sym": "Medium City" }, "geometry": { "type": "Point", "coordinates": [ 7.03, 52.9 ] } },
{ "type": "Feature", "properties": { "name": "ZORGVLIET", "cmt": "PROV: DRENTHE, INW: -", "desc": "PROV: DRENTHE, INW: -", "sym": "Medium City" }, "geometry": { "type": "Point", "coordinates": [ 6.25, 52.92 ] } },
{ "type": "Feature", "properties": { "name": "WATEREN", "cmt": "PROV: DRENTHE, INW: -", "desc": "PROV: DRENTHE, INW: -", "sym": "Medium City" }, "geometry": { "type": "Point", "coordinates": [ 6.28, 52.92 ] } },
{ "type": "Feature", "properties": { "name": "DE POLLE", "cmt": "PROV: DRENTHE, INW: -", "desc": "PROV: DRENTHE, INW: -", "sym": "Medium City" }, "geometry": { "type": "Point", "coordinates": [ 6.42, 52.92 ] } },
{ "type": "Feature", "properties": { "name": "ORANJE", "cmt": "PROV: DRENTHE, INW: -", "desc": "PROV: DRENTHE, INW: -", "sym": "Medium City" }, "geometry": { "type": "Point", "coordinates": [ 6.45, 52.92 ] } },
{ "type": "Feature", "properties": { "name": "LAAGHALEN", "cmt": "PROV: DRENTHE, INW: -", "desc": "PROV: DRENTHE, INW: -", "sym": "Medium City" }, "geometry": { "type": "Point", "coordinates": [ 6.53, 52.92 ] } },
{ "type": "Feature", "properties": { "name": "HOOGHALEN", "cmt": "PROV: DRENTHE, INW: -", "desc": "PROV: DRENTHE, INW: -", "sym": "Medium City" }, "geometry": { "type": "Point", "coordinates": [ 6.55, 52.92 ] } },
{ "type": "Feature", "properties": { "name": "BORGER", "cmt": "PROV: DRENTHE, INW: -", "desc": "PROV: DRENTHE, INW: -", "sym": "Medium City" }, "geometry": { "type": "Point", "coordinates": [ 6.8, 52.92 ] } },
{ "type": "Feature", "properties": { "name": "EES", "cmt": "PROV: DRENTHE, INW: -", "desc": "PROV: DRENTHE, INW: -", "sym": "Medium City" }, "geometry": { "type": "Point", "coordinates": [ 6.82, 52.92 ] } },
{ "type": "Feature", "properties": { "name": "2E EXLOERMOND", "cmt": "PROV: DRENTHE, INW: -", "desc": "PROV: DRENTHE, INW: -", "sym": "Medium City" }, "geometry": { "type": "Point", "coordinates": [ 6.97, 52.92 ] } },
{ "type": "Feature", "properties": { "name": "HIJKERSMILDE", "cmt": "PROV: DRENTHE, INW: -", "desc": "PROV: DRENTHE, INW: -", "sym": "Medium City" }, "geometry": { "type": "Point", "coordinates": [ 6.43, 52.93 ] } },
{ "type": "Feature", "properties": { "name": "LAAGHALERVEEN", "cmt": "PROV: DRENTHE, INW: -", "desc": "PROV: DRENTHE, INW: -", "sym": "Medium City" }, "geometry": { "type": "Point", "coordinates": [ 6.52, 52.93 ] } },
{ "type": "Feature", "properties": { "name": "AMEN", "cmt": "PROV: DRENTHE, INW: -", "desc": "PROV: DRENTHE, INW: -", "sym": "Medium City" }, "geometry": { "type": "Point", "coordinates": [ 6.62, 52.93 ] } },
{ "type": "Feature", "properties": { "name": "GROLLOO", "cmt": "PROV: DRENTHE, INW: -", "desc": "PROV: DRENTHE, INW: -", "sym": "Medium City" }, "geometry": { "type": "Point", "coordinates": [ 6.67, 52.93 ] } },
{ "type": "Feature", "properties": { "name": "BUINEN", "cmt": "PROV: DRENTHE, INW: -", "desc": "PROV: DRENTHE, INW: -", "sym": "Medium City" }, "geometry": { "type": "Point", "coordinates": [ 6.83, 52.93 ] } },
{ "type": "Feature", "properties": { "name": "BUINERVEEN", "cmt": "PROV: DRENTHE, INW: -", "desc": "PROV: DRENTHE, INW: -", "sym": "Medium City" }, "geometry": { "type": "Point", "coordinates": [ 6.88, 52.93 ] } },
{ "type": "Feature", "properties": { "name": "SMILDE", "cmt": "PROV: DRENTHE, INW: -", "desc": "PROV: DRENTHE, INW: -", "sym": "Medium City" }, "geometry": { "type": "Point", "coordinates": [ 6.45, 52.95 ] } },
{ "type": "Feature", "properties": { "name": "GEELBROEK", "cmt": "PROV: DRENTHE, INW: -", "desc": "PROV: DRENTHE, INW: -", "sym": "Medium City" }, "geometry": { "type": "Point", "coordinates": [ 6.57, 52.95 ] } },
{ "type": "Feature", "properties": { "name": "ELEVELD", "cmt": "PROV: DRENTHE, INW: -", "desc": "PROV: DRENTHE, INW: -", "sym": "Medium City" }, "geometry": { "type": "Point", "coordinates": [ 6.58, 52.95 ] } },
{ "type": "Feature", "properties": { "name": "EKEHAAR", "cmt": "PROV: DRENTHE, INW: -", "desc": "PROV: DRENTHE, INW: -", "sym": "Medium City" }, "geometry": { "type": "Point", "coordinates": [ 6.6, 52.95 ] } },
{ "type": "Feature", "properties": { "name": "VREDENHEIM", "cmt": "PROV: DRENTHE, INW: -", "desc": "PROV: DRENTHE, INW: -", "sym": "Medium City" }, "geometry": { "type": "Point", "coordinates": [ 6.65, 52.95 ] } },
{ "type": "Feature", "properties": { "name": "PAPENVOORT", "cmt": "PROV: DRENTHE, INW: -", "desc": "PROV: DRENTHE, INW: -", "sym": "Medium City" }, "geometry": { "type": "Point", "coordinates": [ 6.7, 52.95 ] } },
{ "type": "Feature", "properties": { "name": "DROUWEN", "cmt": "PROV: DRENTHE, INW: -", "desc": "PROV: DRENTHE, INW: -", "sym": "Medium City" }, "geometry": { "type": "Point", "coordinates": [ 6.8, 52.95 ] } },
{ "type": "Feature", "properties": { "name": "BRONNEGER", "cmt": "PROV: DRENTHE, INW: -", "desc": "PROV: DRENTHE, INW: -", "sym": "Medium City" }, "geometry": { "type": "Point", "coordinates": [ 6.82, 52.95 ] } },
{ "type": "Feature", "properties": { "name": "BRONNEGERVEEN", "cmt": "PROV: DRENTHE, INW: -", "desc": "PROV: DRENTHE, INW: -", "sym": "Medium City" }, "geometry": { "type": "Point", "coordinates": [ 6.83, 52.95 ] } },
{ "type": "Feature", "properties": { "name": "NIEUW-BUINEN", "cmt": "PROV: DRENTHE, INW: -", "desc": "PROV: DRENTHE, INW: -", "sym": "Medium City" }, "geometry": { "type": "Point", "coordinates": [ 6.93, 52.95 ] } },
{ "type": "Feature", "properties": { "name": "1E EXLOERMOND", "cmt": "PROV: DRENTHE, INW: -", "desc": "PROV: DRENTHE, INW: -", "sym": "Medium City" }, "geometry": { "type": "Point", "coordinates": [ 6.97, 52.95 ] } },
{ "type": "Feature", "properties": { "name": "DE HAAR0", "cmt": "PROV: DRENTHE, INW: -", "desc": "PROV: DRENTHE, INW: -", "sym": "Medium City" }, "geometry": { "type": "Point", "coordinates": [ 6.53, 52.97 ] } },
{ "type": "Feature", "properties": { "name": "GRASWIJK", "cmt": "PROV: DRENTHE, INW: -", "desc": "PROV: DRENTHE, INW: -", "sym": "Medium City" }, "geometry": { "type": "Point", "coordinates": [ 6.55, 52.97 ] } },
{ "type": "Feature", "properties": { "name": "ELDERSLOO", "cmt": "PROV: DRENTHE, INW: -", "desc": "PROV: DRENTHE, INW: -", "sym": "Medium City" }, "geometry": { "type": "Point", "coordinates": [ 6.62, 52.97 ] } },
{ "type": "Feature", "properties": { "name": "NIJLANDE", "cmt": "PROV: DRENTHE, INW: -", "desc": "PROV: DRENTHE, INW: -", "sym": "Medium City" }, "geometry": { "type": "Point", "coordinates": [ 6.63, 52.97 ] } },
{ "type": "Feature", "properties": { "name": "NOOIT GEDACHT", "cmt": "PROV: DRENTHE, INW: -", "desc": "PROV: DRENTHE, INW: -", "sym": "Medium City" }, "geometry": { "type": "Point", "coordinates": [ 6.67, 52.97 ] } },
{ "type": "Feature", "properties": { "name": "GASSELTE", "cmt": "PROV: DRENTHE, INW: -", "desc": "PROV: DRENTHE, INW: -", "sym": "Medium City" }, "geometry": { "type": "Point", "coordinates": [ 6.78, 52.97 ] } },
{ "type": "Feature", "properties": { "name": "DROUWENERVEEN", "cmt": "PROV: DRENTHE, INW: -", "desc": "PROV: DRENTHE, INW: -", "sym": "Medium City" }, "geometry": { "type": "Point", "coordinates": [ 6.85, 52.97 ] } },
{ "type": "Feature", "properties": { "name": "ZUIDEIND", "cmt": "PROV: DRENTHE, INW: -", "desc": "PROV: DRENTHE, INW: -", "sym": "Medium City" }, "geometry": { "type": "Point", "coordinates": [ 6.87, 52.97 ] } },
{ "type": "Feature", "properties": { "name": "BOVENSMILDE", "cmt": "PROV: DRENTHE, INW: -", "desc": "PROV: DRENTHE, INW: -", "sym": "Medium City" }, "geometry": { "type": "Point", "coordinates": [ 6.48, 52.98 ] } },
{ "type": "Feature", "properties": { "name": "WITTEN", "cmt": "PROV: DRENTHE, INW: -", "desc": "PROV: DRENTHE, INW: -", "sym": "Medium City" }, "geometry": { "type": "Point", "coordinates": [ 6.52, 52.98 ] } },
{ "type": "Feature", "properties": { "name": "ANREEP", "cmt": "PROV: DRENTHE, INW: -", "desc": "PROV: DRENTHE, INW: -", "sym": "Medium City" }, "geometry": { "type": "Point", "coordinates": [ 6.58, 52.98 ] } },
{ "type": "Feature", "properties": { "name": "SCHIEVEN", "cmt": "PROV: DRENTHE, INW: -", "desc": "PROV: DRENTHE, INW: -", "sym": "Medium City" }, "geometry": { "type": "Point", "coordinates": [ 6.6, 52.98 ] } },
{ "type": "Feature", "properties": { "name": "ROLDE", "cmt": "PROV: DRENTHE, INW: -", "desc": "PROV: DRENTHE, INW: -", "sym": "Medium City" }, "geometry": { "type": "Point", "coordinates": [ 6.65, 52.98 ] } },
{ "type": "Feature", "properties": { "name": "KOSTVLIES", "cmt": "PROV: DRENTHE, INW: -", "desc": "PROV: DRENTHE, INW: -", "sym": "Medium City" }, "geometry": { "type": "Point", "coordinates": [ 6.8, 52.98 ] } },
{ "type": "Feature", "properties": { "name": "GASSELTERNIJVEEN", "cmt": "PROV: DRENTHE, INW: -", "desc": "PROV: DRENTHE, INW: -", "sym": "Medium City" }, "geometry": { "type": "Point", "coordinates": [ 6.85, 52.98 ] } },
{ "type": "Feature", "properties": { "name": "SCHREIERSWIJK", "cmt": "PROV: DRENTHE, INW: -", "desc": "PROV: DRENTHE, INW: -", "sym": "Medium City" }, "geometry": { "type": "Point", "coordinates": [ 6.87, 52.98 ] } },
{ "type": "Feature", "properties": { "name": "DROUWENERMOND", "cmt": "PROV: DRENTHE, INW: -", "desc": "PROV: DRENTHE, INW: -", "sym": "Medium City" }, "geometry": { "type": "Point", "coordinates": [ 6.92, 52.98 ] } },
{ "type": "Feature", "properties": { "name": "GASSELTERNIJVEENSCHEMOND", "cmt": "PROV: DRENTHE, INW: -", "desc": "PROV: DRENTHE, INW: -", "sym": "Medium City" }, "geometry": { "type": "Point", "coordinates": [ 6.93, 52.98 ] } },
{ "type": "Feature", "properties": { "name": "KLOOSTERVEEN", "cmt": "PROV: DRENTHE, INW: -", "desc": "PROV: DRENTHE, INW: -", "sym": "Medium City" }, "geometry": { "type": "Point", "coordinates": [ 6.52, 53.0 ] } },
{ "type": "Feature", "properties": { "name": "ASSEN", "cmt": "PROV: DRENTHE, INW: 60230", "desc": "PROV: DRENTHE, INW: 60230", "sym": "Medium City" }, "geometry": { "type": "Point", "coordinates": [ 6.55, 53.0 ] } },
{ "type": "Feature", "properties": { "name": "BALLOO", "cmt": "PROV: DRENTHE, INW: -", "desc": "PROV: DRENTHE, INW: -", "sym": "Medium City" }, "geometry": { "type": "Point", "coordinates": [ 6.63, 53.0 ] } },
{ "type": "Feature", "properties": { "name": "ANDEREN", "cmt": "PROV: DRENTHE, INW: -", "desc": "PROV: DRENTHE, INW: -", "sym": "Medium City" }, "geometry": { "type": "Point", "coordinates": [ 6.68, 53.0 ] } },
{ "type": "Feature", "properties": { "name": "BONNEN", "cmt": "PROV: DRENTHE, INW: -", "desc": "PROV: DRENTHE, INW: -", "sym": "Medium City" }, "geometry": { "type": "Point", "coordinates": [ 6.77, 53.0 ] } },
{ "type": "Feature", "properties": { "name": "VEENHOF", "cmt": "PROV: DRENTHE, INW: -", "desc": "PROV: DRENTHE, INW: -", "sym": "Medium City" }, "geometry": { "type": "Point", "coordinates": [ 6.82, 53.0 ] } },
{ "type": "Feature", "properties": { "name": "TORENVEEN", "cmt": "PROV: DRENTHE, INW: -", "desc": "PROV: DRENTHE, INW: -", "sym": "Medium City" }, "geometry": { "type": "Point", "coordinates": [ 6.83, 53.0 ] } },
{ "type": "Feature", "properties": { "name": "GASSELTERBOERVEEN", "cmt": "PROV: DRENTHE, INW: -", "desc": "PROV: DRENTHE, INW: -", "sym": "Medium City" }, "geometry": { "type": "Point", "coordinates": [ 6.85, 53.0 ] } },
{ "type": "Feature", "properties": { "name": "TWEEDE DWARSDIEP", "cmt": "PROV: DRENTHE, INW: -", "desc": "PROV: DRENTHE, INW: -", "sym": "Medium City" }, "geometry": { "type": "Point", "coordinates": [ 6.9, 53.0 ] } },
{ "type": "Feature", "properties": { "name": "NORGERVAART", "cmt": "PROV: DRENTHE, INW: -", "desc": "PROV: DRENTHE, INW: -", "sym": "Medium City" }, "geometry": { "type": "Point", "coordinates": [ 6.48, 53.02 ] } },
{ "type": "Feature", "properties": { "name": "PEELOO", "cmt": "PROV: DRENTHE, INW: -", "desc": "PROV: DRENTHE, INW: -", "sym": "Medium City" }, "geometry": { "type": "Point", "coordinates": [ 6.58, 53.02 ] } },
{ "type": "Feature", "properties": { "name": "LOON", "cmt": "PROV: DRENTHE, INW: -", "desc": "PROV: DRENTHE, INW: -", "sym": "Medium City" }, "geometry": { "type": "Point", "coordinates": [ 6.62, 53.02 ] } },
{ "type": "Feature", "properties": { "name": "EEXT", "cmt": "PROV: DRENTHE, INW: -", "desc": "PROV: DRENTHE, INW: -", "sym": "Medium City" }, "geometry": { "type": "Point", "coordinates": [ 6.73, 53.02 ] } },
{ "type": "Feature", "properties": { "name": "GIETEN", "cmt": "PROV: DRENTHE, INW: -", "desc": "PROV: DRENTHE, INW: -", "sym": "Medium City" }, "geometry": { "type": "Point", "coordinates": [ 6.77, 53.02 ] } },
{ "type": "Feature", "properties": { "name": "BONNERVEEN", "cmt": "PROV: DRENTHE, INW: -", "desc": "PROV: DRENTHE, INW: -", "sym": "Medium City" }, "geometry": { "type": "Point", "coordinates": [ 6.83, 53.02 ] } },
{ "type": "Feature", "properties": { "name": "BOVENSTREEK", "cmt": "PROV: DRENTHE, INW: -", "desc": "PROV: DRENTHE, INW: -", "sym": "Medium City" }, "geometry": { "type": "Point", "coordinates": [ 6.87, 53.02 ] } },
{ "type": "Feature", "properties": { "name": "GASSELTERBOERVEENSCHEMOND", "cmt": "PROV: DRENTHE, INW: -", "desc": "PROV: DRENTHE, INW: -", "sym": "Medium City" }, "geometry": { "type": "Point", "coordinates": [ 6.88, 53.02 ] } },
{ "type": "Feature", "properties": { "name": "TER-AART", "cmt": "PROV: DRENTHE, INW: -", "desc": "PROV: DRENTHE, INW: -", "sym": "Medium City" }, "geometry": { "type": "Point", "coordinates": [ 6.55, 53.03 ] } },
{ "type": "Feature", "properties": { "name": "RHEE", "cmt": "PROV: DRENTHE, INW: -", "desc": "PROV: DRENTHE, INW: -", "sym": "Medium City" }, "geometry": { "type": "Point", "coordinates": [ 6.57, 53.03 ] } },
{ "type": "Feature", "properties": { "name": "TAARLOO", "cmt": "PROV: DRENTHE, INW: -", "desc": "PROV: DRENTHE, INW: -", "sym": "Medium City" }, "geometry": { "type": "Point", "coordinates": [ 6.62, 53.03 ] } },
{ "type": "Feature", "properties": { "name": "GASTEREN", "cmt": "PROV: DRENTHE, INW: -", "desc": "PROV: DRENTHE, INW: -", "sym": "Medium City" }, "geometry": { "type": "Point", "coordinates": [ 6.67, 53.03 ] } },
{ "type": "Feature", "properties": { "name": "EEXTERZANDVOORT", "cmt": "PROV: DRENTHE, INW: -", "desc": "PROV: DRENTHE, INW: -", "sym": "Medium City" }, "geometry": { "type": "Point", "coordinates": [ 6.78, 53.03 ] } },
{ "type": "Feature", "properties": { "name": "ZANDVOORT", "cmt": "PROV: DRENTHE, INW: ONBEKEND", "desc": "PROV: DRENTHE, INW: ONBEKEND", "sym": "Medium City" }, "geometry": { "type": "Point", "coordinates": [ 6.8, 53.03 ] } },
{ "type": "Feature", "properties": { "name": "HILTE", "cmt": "PROV: DRENTHE, INW: -", "desc": "PROV: DRENTHE, INW: -", "sym": "Medium City" }, "geometry": { "type": "Point", "coordinates": [ 6.83, 53.03 ] } },
{ "type": "Feature", "properties": { "name": "STREEK", "cmt": "PROV: DRENTHE, INW: -", "desc": "PROV: DRENTHE, INW: -", "sym": "Medium City" }, "geometry": { "type": "Point", "coordinates": [ 6.85, 53.03 ] } },
{ "type": "Feature", "properties": { "name": "VEENHUIZEN1", "cmt": "PROV: DRENTHE, INW: -", "desc": "PROV: DRENTHE, INW: -", "sym": "Medium City" }, "geometry": { "type": "Point", "coordinates": [ 6.4, 53.05 ] } },
{ "type": "Feature", "properties": { "name": "WESTERVELDE", "cmt": "PROV: DRENTHE, INW: -", "desc": "PROV: DRENTHE, INW: -", "sym": "Medium City" }, "geometry": { "type": "Point", "coordinates": [ 6.43, 53.05 ] } },
{ "type": "Feature", "properties": { "name": "ZUIDVELDE", "cmt": "PROV: DRENTHE, INW: -", "desc": "PROV: DRENTHE, INW: -", "sym": "Medium City" }, "geometry": { "type": "Point", "coordinates": [ 6.47, 53.05 ] } },
{ "type": "Feature", "properties": { "name": "ZEYEN", "cmt": "PROV: DRENTHE, INW: -", "desc": "PROV: DRENTHE, INW: -", "sym": "Medium City" }, "geometry": { "type": "Point", "coordinates": [ 6.55, 53.05 ] } },
{ "type": "Feature", "properties": { "name": "UBBENA", "cmt": "PROV: DRENTHE, INW: -", "desc": "PROV: DRENTHE, INW: -", "sym": "Medium City" }, "geometry": { "type": "Point", "coordinates": [ 6.57, 53.05 ] } },
{ "type": "Feature", "properties": { "name": "OUDEMOLEN", "cmt": "PROV: DRENTHE, INW: -", "desc": "PROV: DRENTHE, INW: -", "sym": "Medium City" }, "geometry": { "type": "Point", "coordinates": [ 6.65, 53.05 ] } },
{ "type": "Feature", "properties": { "name": "ANLOO", "cmt": "PROV: DRENTHE, INW: -", "desc": "PROV: DRENTHE, INW: -", "sym": "Medium City" }, "geometry": { "type": "Point", "coordinates": [ 6.7, 53.05 ] } },
{ "type": "Feature", "properties": { "name": "NOORD EEXTERVEEN", "cmt": "PROV: DRENTHE, INW: -", "desc": "PROV: DRENTHE, INW: -", "sym": "Medium City" }, "geometry": { "type": "Point", "coordinates": [ 6.8, 53.05 ] } },
{ "type": "Feature", "properties": { "name": "EEXTERVEENSCHEKANAAL", "cmt": "PROV: DRENTHE, INW: -", "desc": "PROV: DRENTHE, INW: -", "sym": "Medium City" }, "geometry": { "type": "Point", "coordinates": [ 6.83, 53.05 ] } },
{ "type": "Feature", "properties": { "name": "NIEUWEDIEP", "cmt": "PROV: DRENTHE, INW: -", "desc": "PROV: DRENTHE, INW: -", "sym": "Medium City" }, "geometry": { "type": "Point", "coordinates": [ 6.85, 53.05 ] } },
{ "type": "Feature", "properties": { "name": "EEN", "cmt": "PROV: DRENTHE, INW: -", "desc": "PROV: DRENTHE, INW: -", "sym": "Medium City" }, "geometry": { "type": "Point", "coordinates": [ 6.4, 53.07 ] } },
{ "type": "Feature", "properties": { "name": "NORG", "cmt": "PROV: DRENTHE, INW: -", "desc": "PROV: DRENTHE, INW: -", "sym": "Medium City" }, "geometry": { "type": "Point", "coordinates": [ 6.47, 53.07 ] } },
{ "type": "Feature", "properties": { "name": "PEEST", "cmt": "PROV: DRENTHE, INW: -", "desc": "PROV: DRENTHE, INW: -", "sym": "Medium City" }, "geometry": { "type": "Point", "coordinates": [ 6.5, 53.07 ] } },
{ "type": "Feature", "properties": { "name": "HEIDEHEIM", "cmt": "PROV: DRENTHE, INW: -", "desc": "PROV: DRENTHE, INW: -", "sym": "Medium City" }, "geometry": { "type": "Point", "coordinates": [ 6.6, 53.07 ] } },
{ "type": "Feature", "properties": { "name": "ZEEGSE", "cmt": "PROV: DRENTHE, INW: -", "desc": "PROV: DRENTHE, INW: -", "sym": "Medium City" }, "geometry": { "type": "Point", "coordinates": [ 6.65, 53.07 ] } },
{ "type": "Feature", "properties": { "name": "SCHIPBORK", "cmt": "PROV: DRENTHE, INW: -", "desc": "PROV: DRENTHE, INW: -", "sym": "Medium City" }, "geometry": { "type": "Point", "coordinates": [ 6.67, 53.07 ] } },
{ "type": "Feature", "properties": { "name": "ANNEN", "cmt": "PROV: DRENTHE, INW: -", "desc": "PROV: DRENTHE, INW: -", "sym": "Medium City" }, "geometry": { "type": "Point", "coordinates": [ 6.73, 53.07 ] } },
{ "type": "Feature", "properties": { "name": "NIEUW ANNERVEEN", "cmt": "PROV: DRENTHE, INW: -", "desc": "PROV: DRENTHE, INW: -", "sym": "Medium City" }, "geometry": { "type": "Point", "coordinates": [ 6.78, 53.07 ] } },
{ "type": "Feature", "properties": { "name": "EEN-WEST", "cmt": "PROV: DRENTHE, INW: -", "desc": "PROV: DRENTHE, INW: -", "sym": "Medium City" }, "geometry": { "type": "Point", "coordinates": [ 6.33, 53.08 ] } },
{ "type": "Feature", "properties": { "name": "VRIES", "cmt": "PROV: DRENTHE, INW: -", "desc": "PROV: DRENTHE, INW: -", "sym": "Medium City" }, "geometry": { "type": "Point", "coordinates": [ 6.58, 53.08 ] } },
{ "type": "Feature", "properties": { "name": "TYNAARLO", "cmt": "PROV: DRENTHE, INW: 31865", "desc": "PROV: DRENTHE, INW: 31865", "sym": "Medium City" }, "geometry": { "type": "Point", "coordinates": [ 6.6, 53.08 ] } },
{ "type": "Feature", "properties": { "name": "WESTLAREN", "cmt": "PROV: DRENTHE, INW: -", "desc": "PROV: DRENTHE, INW: -", "sym": "Medium City" }, "geometry": { "type": "Point", "coordinates": [ 6.67, 53.08 ] } },
{ "type": "Feature", "properties": { "name": "SCHUILINGSOORD", "cmt": "PROV: DRENTHE, INW: -", "desc": "PROV: DRENTHE, INW: -", "sym": "Medium City" }, "geometry": { "type": "Point", "coordinates": [ 6.7, 53.08 ] } },
{ "type": "Feature", "properties": { "name": "SPIJKERBOOR", "cmt": "PROV: DRENTHE, INW: -", "desc": "PROV: DRENTHE, INW: -", "sym": "Medium City" }, "geometry": { "type": "Point", "coordinates": [ 6.77, 53.08 ] } },
{ "type": "Feature", "properties": { "name": "ANNERVEENSCH KANAAL", "cmt": "PROV: DRENTHE, INW: -", "desc": "PROV: DRENTHE, INW: -", "sym": "Medium City" }, "geometry": { "type": "Point", "coordinates": [ 6.8, 53.08 ] } },
{ "type": "Feature", "properties": { "name": "AMERIKA", "cmt": "PROV: DRENTHE, INW: -", "desc": "PROV: DRENTHE, INW: -", "sym": "Medium City" }, "geometry": { "type": "Point", "coordinates": [ 6.37, 53.1 ] } },
{ "type": "Feature", "properties": { "name": "STEENBERGEN", "cmt": "PROV: DRENTHE, INW: ONBEKEND", "desc": "PROV: DRENTHE, INW: ONBEKEND", "sym": "Medium City" }, "geometry": { "type": "Point", "coordinates": [ 6.42, 53.1 ] } },
{ "type": "Feature", "properties": { "name": "LANGELOO", "cmt": "PROV: DRENTHE, INW: -", "desc": "PROV: DRENTHE, INW: -", "sym": "Medium City" }, "geometry": { "type": "Point", "coordinates": [ 6.45, 53.1 ] } },
{ "type": "Feature", "properties": { "name": "DONDEREN", "cmt": "PROV: DRENTHE, INW: -", "desc": "PROV: DRENTHE, INW: -", "sym": "Medium City" }, "geometry": { "type": "Point", "coordinates": [ 6.55, 53.1 ] } },
{ "type": "Feature", "properties": { "name": "HALFWEG", "cmt": "PROV: DRENTHE, INW: -", "desc": "PROV: DRENTHE, INW: -", "sym": "Medium City" }, "geometry": { "type": "Point", "coordinates": [ 6.6, 53.1 ] } },
{ "type": "Feature", "properties": { "name": "ZUIDLAREN", "cmt": "PROV: DRENTHE, INW: -", "desc": "PROV: DRENTHE, INW: -", "sym": "Medium City" }, "geometry": { "type": "Point", "coordinates": [ 6.68, 53.1 ] } },
{ "type": "Feature", "properties": { "name": "ZUIDLAARDERVEEN", "cmt": "PROV: DRENTHE, INW: -", "desc": "PROV: DRENTHE, INW: -", "sym": "Medium City" }, "geometry": { "type": "Point", "coordinates": [ 6.75, 53.1 ] } },
{ "type": "Feature", "properties": { "name": "RODERESCH", "cmt": "PROV: DRENTHE, INW: -", "desc": "PROV: DRENTHE, INW: -", "sym": "Medium City" }, "geometry": { "type": "Point", "coordinates": [ 6.42, 53.12 ] } },
{ "type": "Feature", "properties": { "name": "ALTEVEER0", "cmt": "PROV: DRENTHE, INW: -", "desc": "PROV: DRENTHE, INW: -", "sym": "Medium City" }, "geometry": { "type": "Point", "coordinates": [ 6.43, 53.12 ] } },
{ "type": "Feature", "properties": { "name": "LIEVEREN", "cmt": "PROV: DRENTHE, INW: -", "desc": "PROV: DRENTHE, INW: -", "sym": "Medium City" }, "geometry": { "type": "Point", "coordinates": [ 6.47, 53.12 ] } },
{ "type": "Feature", "properties": { "name": "BUNNE", "cmt": "PROV: DRENTHE, INW: -", "desc": "PROV: DRENTHE, INW: -", "sym": "Medium City" }, "geometry": { "type": "Point", "coordinates": [ 6.53, 53.12 ] } },
{ "type": "Feature", "properties": { "name": "YDE", "cmt": "PROV: DRENTHE, INW: -", "desc": "PROV: DRENTHE, INW: -", "sym": "Medium City" }, "geometry": { "type": "Point", "coordinates": [ 6.58, 53.12 ] } },
{ "type": "Feature", "properties": { "name": "MIDLAREN", "cmt": "PROV: DRENTHE, INW: -", "desc": "PROV: DRENTHE, INW: -", "sym": "Medium City" }, "geometry": { "type": "Point", "coordinates": [ 6.68, 53.12 ] } },
{ "type": "Feature", "properties": { "name": "GROEVE", "cmt": "PROV: DRENTHE, INW: -", "desc": "PROV: DRENTHE, INW: -", "sym": "Medium City" }, "geometry": { "type": "Point", "coordinates": [ 6.72, 53.12 ] } },
{ "type": "Feature", "properties": { "name": "NIEUW-RODEN", "cmt": "PROV: DRENTHE, INW: -", "desc": "PROV: DRENTHE, INW: -", "sym": "Medium City" }, "geometry": { "type": "Point", "coordinates": [ 6.4, 53.13 ] } },
{ "type": "Feature", "properties": { "name": "RODEN", "cmt": "PROV: DRENTHE, INW: -", "desc": "PROV: DRENTHE, INW: -", "sym": "Medium City" }, "geometry": { "type": "Point", "coordinates": [ 6.43, 53.13 ] } },
{ "type": "Feature", "properties": { "name": "ALTENA", "cmt": "PROV: DRENTHE, INW: -", "desc": "PROV: DRENTHE, INW: -", "sym": "Medium City" }, "geometry": { "type": "Point", "coordinates": [ 6.48, 53.13 ] } },
{ "type": "Feature", "properties": { "name": "BOERELAAN", "cmt": "PROV: DRENTHE, INW: -", "desc": "PROV: DRENTHE, INW: -", "sym": "Medium City" }, "geometry": { "type": "Point", "coordinates": [ 6.5, 53.13 ] } },
{ "type": "Feature", "properties": { "name": "PEIZERHORST", "cmt": "PROV: DRENTHE, INW: -", "desc": "PROV: DRENTHE, INW: -", "sym": "Medium City" }, "geometry": { "type": "Point", "coordinates": [ 6.52, 53.13 ] } },
{ "type": "Feature", "properties": { "name": "WINDE", "cmt": "PROV: DRENTHE, INW: -", "desc": "PROV: DRENTHE, INW: -", "sym": "Medium City" }, "geometry": { "type": "Point", "coordinates": [ 6.53, 53.13 ] } },
{ "type": "Feature", "properties": { "name": "ZUIDEIND0", "cmt": "PROV: DRENTHE, INW: -", "desc": "PROV: DRENTHE, INW: -", "sym": "Medium City" }, "geometry": { "type": "Point", "coordinates": [ 6.57, 53.13 ] } },
{ "type": "Feature", "properties": { "name": "OOSTERBROEK", "cmt": "PROV: DRENTHE, INW: -", "desc": "PROV: DRENTHE, INW: -", "sym": "Medium City" }, "geometry": { "type": "Point", "coordinates": [ 6.6, 53.13 ] } },
{ "type": "Feature", "properties": { "name": "TERHEIL", "cmt": "PROV: DRENTHE, INW: -", "desc": "PROV: DRENTHE, INW: -", "sym": "Medium City" }, "geometry": { "type": "Point", "coordinates": [ 6.38, 53.15 ] } },
{ "type": "Feature", "properties": { "name": "ZULTE", "cmt": "PROV: DRENTHE, INW: -", "desc": "PROV: DRENTHE, INW: -", "sym": "Medium City" }, "geometry": { "type": "Point", "coordinates": [ 6.43, 53.15 ] } },
{ "type": "Feature", "properties": { "name": "WOLDE", "cmt": "PROV: DRENTHE, INW: -", "desc": "PROV: DRENTHE, INW: -", "sym": "Medium City" }, "geometry": { "type": "Point", "coordinates": [ 6.45, 53.15 ] } },
{ "type": "Feature", "properties": { "name": "PEIZE", "cmt": "PROV: DRENTHE, INW: -", "desc": "PROV: DRENTHE, INW: -", "sym": "Medium City" }, "geometry": { "type": "Point", "coordinates": [ 6.5, 53.15 ] } },
{ "type": "Feature", "properties": { "name": "NIETAP", "cmt": "PROV: DRENTHE, INW: -", "desc": "PROV: DRENTHE, INW: -", "sym": "Medium City" }, "geometry": { "type": "Point", "coordinates": [ 6.4, 53.17 ] } },
{ "type": "Feature", "properties": { "name": "SANDEBUUR", "cmt": "PROV: DRENTHE, INW: -", "desc": "PROV: DRENTHE, INW: -", "sym": "Medium City" }, "geometry": { "type": "Point", "coordinates": [ 6.45, 53.17 ] } },
{ "type": "Feature", "properties": { "name": "RODERWOLDE", "cmt": "PROV: DRENTHE, INW: -", "desc": "PROV: DRENTHE, INW: -", "sym": "Medium City" }, "geometry": { "type": "Point", "coordinates": [ 6.47, 53.17 ] } },
{ "type": "Feature", "properties": { "name": "PEIZERWOLD", "cmt": "PROV: DRENTHE, INW: -", "desc": "PROV: DRENTHE, INW: -", "sym": "Medium City" }, "geometry": { "type": "Point", "coordinates": [ 6.5, 53.17 ] } },
{ "type": "Feature", "properties": { "name": "SCHELFSHORST", "cmt": "PROV: DRENTHE, INW: -", "desc": "PROV: DRENTHE, INW: -", "sym": "Medium City" }, "geometry": { "type": "Point", "coordinates": [ 6.55, 53.17 ] } },
{ "type": "Feature", "properties": { "name": "PATERSWOLDE", "cmt": "PROV: DRENTHE, INW: -", "desc": "PROV: DRENTHE, INW: -", "sym": "Medium City" }, "geometry": { "type": "Point", "coordinates": [ 6.57, 53.17 ] } },
{ "type": "Feature", "properties": { "name": "EELDERWOLDE", "cmt": "PROV: DRENTHE, INW: -", "desc": "PROV: DRENTHE, INW: -", "sym": "Medium City" }, "geometry": { "type": "Point", "coordinates": [ 6.55, 53.18 ] } },
{ "type": "Feature", "properties": { "name": "MATSLOOT", "cmt": "PROV: DRENTHE, INW: -", "desc": "PROV: DRENTHE, INW: -", "sym": "Medium City" }, "geometry": { "type": "Point", "coordinates": [ 6.48, 53.2 ] } },
{ "type": "Feature", "properties": { "name": "ALMERE-STAD", "cmt": "PROV: FLEVOLAND, INW: -", "desc": "PROV: FLEVOLAND, INW: -", "sym": "Medium City" }, "geometry": { "type": "Point", "coordinates": [ 5.15, 52.37 ] } },
{ "type": "Feature", "properties": { "name": "ZEEWOLDE", "cmt": "PROV: FLEVOLAND, INW: 19249", "desc": "PROV: FLEVOLAND, INW: 19249", "sym": "Medium City" }, "geometry": { "type": "Point", "coordinates": [ 5.55, 52.37 ] } },
{ "type": "Feature", "properties": { "name": "ALMERE-BUITEN", "cmt": "PROV: FLEVOLAND, INW: -", "desc": "PROV: FLEVOLAND, INW: -", "sym": "Medium City" }, "geometry": { "type": "Point", "coordinates": [ 5.23, 52.4 ] } },
{ "type": "Feature", "properties": { "name": "OOSTVAARDERSDIEP", "cmt": "PROV: FLEVOLAND, INW: -", "desc": "PROV: FLEVOLAND, INW: -", "sym": "Medium City" }, "geometry": { "type": "Point", "coordinates": [ 5.23, 52.42 ] } },
{ "type": "Feature", "properties": { "name": "BIDDINGHUIZEN", "cmt": "PROV: FLEVOLAND, INW: -", "desc": "PROV: FLEVOLAND, INW: -", "sym": "Medium City" }, "geometry": { "type": "Point", "coordinates": [ 5.7, 52.45 ] } },
{ "type": "Feature", "properties": { "name": "LELYSTAD-HAVEN", "cmt": "PROV: FLEVOLAND, INW: -", "desc": "PROV: FLEVOLAND, INW: -", "sym": "Medium City" }, "geometry": { "type": "Point", "coordinates": [ 5.45, 52.52 ] } },
{ "type": "Feature", "properties": { "name": "LELYSTAD", "cmt": "PROV: FLEVOLAND, INW: 64660", "desc": "PROV: FLEVOLAND, INW: 64660", "sym": "Medium City" }, "geometry": { "type": "Point", "coordinates": [ 5.48, 52.52 ] } },
{ "type": "Feature", "properties": { "name": "DRONTEN", "cmt": "PROV: FLEVOLAND, INW: 36369", "desc": "PROV: FLEVOLAND, INW: 36369", "sym": "Medium City" }, "geometry": { "type": "Point", "coordinates": [ 5.72, 52.53 ] } },
{ "type": "Feature", "properties": { "name": "ROGGEBOTSLUIS", "cmt": "PROV: FLEVOLAND, INW: -", "desc": "PROV: FLEVOLAND, INW: -", "sym": "Medium City" }, "geometry": { "type": "Point", "coordinates": [ 5.85, 52.55 ] } },
{ "type": "Feature", "properties": { "name": "SWIFTERBANT", "cmt": "PROV: FLEVOLAND, INW: -", "desc": "PROV: FLEVOLAND, INW: -", "sym": "Medium City" }, "geometry": { "type": "Point", "coordinates": [ 5.63, 52.57 ] } },
{ "type": "Feature", "properties": { "name": "KETELHAVEN", "cmt": "PROV: FLEVOLAND, INW: -", "desc": "PROV: FLEVOLAND, INW: -", "sym": "Medium City" }, "geometry": { "type": "Point", "coordinates": [ 5.75, 52.58 ] } },
{ "type": "Feature", "properties": { "name": "MIDDELBUURT", "cmt": "PROV: FLEVOLAND, INW: -", "desc": "PROV: FLEVOLAND, INW: -", "sym": "Medium City" }, "geometry": { "type": "Point", "coordinates": [ 5.78, 52.63 ] } },
{ "type": "Feature", "properties": { "name": "ENS", "cmt": "PROV: FLEVOLAND, INW: -", "desc": "PROV: FLEVOLAND, INW: -", "sym": "Medium City" }, "geometry": { "type": "Point", "coordinates": [ 5.83, 52.63 ] } },
{ "type": "Feature", "properties": { "name": "NAGELE", "cmt": "PROV: FLEVOLAND, INW: -", "desc": "PROV: FLEVOLAND, INW: -", "sym": "Medium City" }, "geometry": { "type": "Point", "coordinates": [ 5.73, 52.65 ] } },
{ "type": "Feature", "properties": { "name": "URK", "cmt": "PROV: FLEVOLAND, INW: 16489", "desc": "PROV: FLEVOLAND, INW: 16489", "sym": "Medium City" }, "geometry": { "type": "Point", "coordinates": [ 5.6, 52.67 ] } },
{ "type": "Feature", "properties": { "name": "KRAGGENBURG", "cmt": "PROV: FLEVOLAND, INW: -", "desc": "PROV: FLEVOLAND, INW: -", "sym": "Medium City" }, "geometry": { "type": "Point", "coordinates": [ 5.9, 52.67 ] } },
{ "type": "Feature", "properties": { "name": "TOLLEBEEK", "cmt": "PROV: FLEVOLAND, INW: -", "desc": "PROV: FLEVOLAND, INW: -", "sym": "Medium City" }, "geometry": { "type": "Point", "coordinates": [ 5.68, 52.68 ] } },
{ "type": "Feature", "properties": { "name": "ESPELE", "cmt": "PROV: FLEVOLAND, INW: -", "desc": "PROV: FLEVOLAND, INW: -", "sym": "Medium City" }, "geometry": { "type": "Point", "coordinates": [ 5.65, 52.72 ] } },
{ "type": "Feature", "properties": { "name": "EMMELOORD", "cmt": "PROV: FLEVOLAND, INW: -", "desc": "PROV: FLEVOLAND, INW: -", "sym": "Medium City" }, "geometry": { "type": "Point", "coordinates": [ 5.77, 52.72 ] } },
{ "type": "Feature", "properties": { "name": "MARKNESSE", "cmt": "PROV: FLEVOLAND, INW: -", "desc": "PROV: FLEVOLAND, INW: -", "sym": "Medium City" }, "geometry": { "type": "Point", "coordinates": [ 5.87, 52.72 ] } },
{ "type": "Feature", "properties": { "name": "LUTTELGEEST", "cmt": "PROV: FLEVOLAND, INW: -", "desc": "PROV: FLEVOLAND, INW: -", "sym": "Medium City" }, "geometry": { "type": "Point", "coordinates": [ 5.85, 52.75 ] } },
{ "type": "Feature", "properties": { "name": "CREIL", "cmt": "PROV: FLEVOLAND, INW: -", "desc": "PROV: FLEVOLAND, INW: -", "sym": "Medium City" }, "geometry": { "type": "Point", "coordinates": [ 5.67, 52.77 ] } },
{ "type": "Feature", "properties": { "name": "BANT", "cmt": "PROV: FLEVOLAND, INW: -", "desc": "PROV: FLEVOLAND, INW: -", "sym": "Medium City" }, "geometry": { "type": "Point", "coordinates": [ 5.75, 52.77 ] } },
{ "type": "Feature", "properties": { "name": "RUTTEN", "cmt": "PROV: FLEVOLAND, INW: -", "desc": "PROV: FLEVOLAND, INW: -", "sym": "Medium City" }, "geometry": { "type": "Point", "coordinates": [ 5.7, 52.8 ] } },
{ "type": "Feature", "properties": { "name": "SCHOTERZIJL", "cmt": "PROV: FRYSLN, INW: -", "desc": "PROV: FRYSLN, INW: -", "sym": "Medium City" }, "geometry": { "type": "Point", "coordinates": [ 5.82, 52.82 ] } },
{ "type": "Feature", "properties": { "name": "SLIJKENBURG", "cmt": "PROV: FRYSLN, INW: -", "desc": "PROV: FRYSLN, INW: -", "sym": "Medium City" }, "geometry": { "type": "Point", "coordinates": [ 5.85, 52.82 ] } },
{ "type": "Feature", "properties": { "name": "SPANGA", "cmt": "PROV: FRYSLN, INW: -", "desc": "PROV: FRYSLN, INW: -", "sym": "Medium City" }, "geometry": { "type": "Point", "coordinates": [ 5.9, 52.82 ] } },
{ "type": "Feature", "properties": { "name": "KOOISLOOT", "cmt": "PROV: FRYSLN, INW: -", "desc": "PROV: FRYSLN, INW: -", "sym": "Medium City" }, "geometry": { "type": "Point", "coordinates": [ 5.8, 52.83 ] } },
{ "type": "Feature", "properties": { "name": "SCHERPENZEEL", "cmt": "PROV: FRYSLN, INW: ONBEKEND", "desc": "PROV: FRYSLN, INW: ONBEKEND", "sym": "Medium City" }, "geometry": { "type": "Point", "coordinates": [ 5.88, 52.83 ] } },
{ "type": "Feature", "properties": { "name": "BLESDIJKE", "cmt": "PROV: FRYSLN, INW: -", "desc": "PROV: FRYSLN, INW: -", "sym": "Medium City" }, "geometry": { "type": "Point", "coordinates": [ 6.02, 52.83 ] } },
{ "type": "Feature", "properties": { "name": "BLESDIJKERVELD", "cmt": "PROV: FRYSLN, INW: -", "desc": "PROV: FRYSLN, INW: -", "sym": "Medium City" }, "geometry": { "type": "Point", "coordinates": [ 6.03, 52.83 ] } },
{ "type": "Feature", "properties": { "name": "DE BLESSE", "cmt": "PROV: FRYSLN, INW: -", "desc": "PROV: FRYSLN, INW: -", "sym": "Medium City" }, "geometry": { "type": "Point", "coordinates": [ 6.05, 52.83 ] } },
{ "type": "Feature", "properties": { "name": "PEPERGA", "cmt": "PROV: FRYSLN, INW: -", "desc": "PROV: FRYSLN, INW: -", "sym": "Medium City" }, "geometry": { "type": "Point", "coordinates": [ 6.08, 52.83 ] } },
{ "type": "Feature", "properties": { "name": "LAAXUM", "cmt": "PROV: FRYSLN, INW: -", "desc": "PROV: FRYSLN, INW: -", "sym": "Medium City" }, "geometry": { "type": "Point", "coordinates": [ 5.42, 52.85 ] } },
{ "type": "Feature", "properties": { "name": "MIRNS", "cmt": "PROV: FRYSLN, INW: -", "desc": "PROV: FRYSLN, INW: -", "sym": "Medium City" }, "geometry": { "type": "Point", "coordinates": [ 5.47, 52.85 ] } },
{ "type": "Feature", "properties": { "name": "OUDEMIRDUM", "cmt": "PROV: FRYSLN, INW: -", "desc": "PROV: FRYSLN, INW: -", "sym": "Medium City" }, "geometry": { "type": "Point", "coordinates": [ 5.53, 52.85 ] } },
{ "type": "Feature", "properties": { "name": "NIJEMIRDUM", "cmt": "PROV: FRYSLN, INW: -", "desc": "PROV: FRYSLN, INW: -", "sym": "Medium City" }, "geometry": { "type": "Point", "coordinates": [ 5.57, 52.85 ] } },
{ "type": "Feature", "properties": { "name": "HOOIBERGEN", "cmt": "PROV: FRYSLN, INW: -", "desc": "PROV: FRYSLN, INW: -", "sym": "Medium City" }, "geometry": { "type": "Point", "coordinates": [ 5.58, 52.85 ] } },
{ "type": "Feature", "properties": { "name": "LEMMER", "cmt": "PROV: FRYSLN, INW: -", "desc": "PROV: FRYSLN, INW: -", "sym": "Medium City" }, "geometry": { "type": "Point", "coordinates": [ 5.72, 52.85 ] } },
{ "type": "Feature", "properties": { "name": "OTTERWEG", "cmt": "PROV: FRYSLN, INW: -", "desc": "PROV: FRYSLN, INW: -", "sym": "Medium City" }, "geometry": { "type": "Point", "coordinates": [ 5.78, 52.85 ] } },
{ "type": "Feature", "properties": { "name": "BANDSLOOT", "cmt": "PROV: FRYSLN, INW: -", "desc": "PROV: FRYSLN, INW: -", "sym": "Medium City" }, "geometry": { "type": "Point", "coordinates": [ 5.82, 52.85 ] } },
{ "type": "Feature", "properties": { "name": "LANGELILLE", "cmt": "PROV: FRYSLN, INW: -", "desc": "PROV: FRYSLN, INW: -", "sym": "Medium City" }, "geometry": { "type": "Point", "coordinates": [ 5.85, 52.85 ] } },
{ "type": "Feature", "properties": { "name": "GRACHT", "cmt": "PROV: FRYSLN, INW: -", "desc": "PROV: FRYSLN, INW: -", "sym": "Medium City" }, "geometry": { "type": "Point", "coordinates": [ 5.87, 52.85 ] } },
{ "type": "Feature", "properties": { "name": "MUNNIKEBUREN", "cmt": "PROV: FRYSLN, INW: -", "desc": "PROV: FRYSLN, INW: -", "sym": "Medium City" }, "geometry": { "type": "Point", "coordinates": [ 5.88, 52.85 ] } },
{ "type": "Feature", "properties": { "name": "NIJETRINE", "cmt": "PROV: FRYSLN, INW: -", "desc": "PROV: FRYSLN, INW: -", "sym": "Medium City" }, "geometry": { "type": "Point", "coordinates": [ 5.92, 52.85 ] } },
{ "type": "Feature", "properties": { "name": "STEGGERDEN", "cmt": "PROV: FRYSLN, INW: -", "desc": "PROV: FRYSLN, INW: -", "sym": "Medium City" }, "geometry": { "type": "Point", "coordinates": [ 6.07, 52.85 ] } },
{ "type": "Feature", "properties": { "name": "SCHARL", "cmt": "PROV: FRYSLN, INW: -", "desc": "PROV: FRYSLN, INW: -", "sym": "Medium City" }, "geometry": { "type": "Point", "coordinates": [ 5.4, 52.87 ] } },
{ "type": "Feature", "properties": { "name": "WARNS", "cmt": "PROV: FRYSLN, INW: -", "desc": "PROV: FRYSLN, INW: -", "sym": "Medium City" }, "geometry": { "type": "Point", "coordinates": [ 5.42, 52.87 ] } },
{ "type": "Feature", "properties": { "name": "BAKHUIZEN", "cmt": "PROV: FRYSLN, INW: -", "desc": "PROV: FRYSLN, INW: -", "sym": "Medium City" }, "geometry": { "type": "Point", "coordinates": [ 5.45, 52.87 ] } },
{ "type": "Feature", "properties": { "name": "RIJS", "cmt": "PROV: FRYSLN, INW: -", "desc": "PROV: FRYSLN, INW: -", "sym": "Medium City" }, "geometry": { "type": "Point", "coordinates": [ 5.5, 52.87 ] } },
{ "type": "Feature", "properties": { "name": "SCHOUW", "cmt": "PROV: FRYSLN, INW: -", "desc": "PROV: FRYSLN, INW: -", "sym": "Medium City" }, "geometry": { "type": "Point", "coordinates": [ 5.53, 52.87 ] } },
{ "type": "Feature", "properties": { "name": "ELFBERGEN", "cmt": "PROV: FRYSLN, INW: -", "desc": "PROV: FRYSLN, INW: -", "sym": "Medium City" }, "geometry": { "type": "Point", "coordinates": [ 5.55, 52.87 ] } },
{ "type": "Feature", "properties": { "name": "NIEUW AMERIKA", "cmt": "PROV: FRYSLN, INW: -", "desc": "PROV: FRYSLN, INW: -", "sym": "Medium City" }, "geometry": { "type": "Point", "coordinates": [ 5.57, 52.87 ] } },
{ "type": "Feature", "properties": { "name": "SONDEL", "cmt": "PROV: FRYSLN, INW: -", "desc": "PROV: FRYSLN, INW: -", "sym": "Medium City" }, "geometry": { "type": "Point", "coordinates": [ 5.6, 52.87 ] } },
{ "type": "Feature", "properties": { "name": "TAKOZIJL", "cmt": "PROV: FRYSLN, INW: -", "desc": "PROV: FRYSLN, INW: -", "sym": "Medium City" }, "geometry": { "type": "Point", "coordinates": [ 5.65, 52.87 ] } },
{ "type": "Feature", "properties": { "name": "EESTERGA", "cmt": "PROV: FRYSLN, INW: -", "desc": "PROV: FRYSLN, INW: -", "sym": "Medium City" }, "geometry": { "type": "Point", "coordinates": [ 5.73, 52.87 ] } },
{ "type": "Feature", "properties": { "name": "OOSTERZEE", "cmt": "PROV: FRYSLN, INW: -", "desc": "PROV: FRYSLN, INW: -", "sym": "Medium City" }, "geometry": { "type": "Point", "coordinates": [ 5.75, 52.87 ] } },
{ "type": "Feature", "properties": { "name": "OOSTERZEE0", "cmt": "PROV: FRYSLN, INW: -", "desc": "PROV: FRYSLN, INW: -", "sym": "Medium City" }, "geometry": { "type": "Point", "coordinates": [ 5.77, 52.87 ] } },
{ "type": "Feature", "properties": { "name": "ECHTEN", "cmt": "PROV: FRYSLN, INW: -", "desc": "PROV: FRYSLN, INW: -", "sym": "Medium City" }, "geometry": { "type": "Point", "coordinates": [ 5.8, 52.87 ] } },
{ "type": "Feature", "properties": { "name": "ECHTERBRUG", "cmt": "PROV: FRYSLN, INW: -", "desc": "PROV: FRYSLN, INW: -", "sym": "Medium City" }, "geometry": { "type": "Point", "coordinates": [ 5.82, 52.87 ] } },
{ "type": "Feature", "properties": { "name": "ZEVENBUURT", "cmt": "PROV: FRYSLN, INW: -", "desc": "PROV: FRYSLN, INW: -", "sym": "Medium City" }, "geometry": { "type": "Point", "coordinates": [ 5.85, 52.87 ] } },
{ "type": "Feature", "properties": { "name": "OLDELEMMER", "cmt": "PROV: FRYSLN, INW: -", "desc": "PROV: FRYSLN, INW: -", "sym": "Medium City" }, "geometry": { "type": "Point", "coordinates": [ 5.93, 52.87 ] } },
{ "type": "Feature", "properties": { "name": "OLDETRINE", "cmt": "PROV: FRYSLN, INW: -", "desc": "PROV: FRYSLN, INW: -", "sym": "Medium City" }, "geometry": { "type": "Point", "coordinates": [ 5.95, 52.87 ] } },
{ "type": "Feature", "properties": { "name": "SONNEGA", "cmt": "PROV: FRYSLN, INW: -", "desc": "PROV: FRYSLN, INW: -", "sym": "Medium City" }, "geometry": { "type": "Point", "coordinates": [ 5.97, 52.87 ] } },
{ "type": "Feature", "properties": { "name": "VINKEGA", "cmt": "PROV: FRYSLN, INW: -", "desc": "PROV: FRYSLN, INW: -", "sym": "Medium City" }, "geometry": { "type": "Point", "coordinates": [ 6.12, 52.87 ] } },
{ "type": "Feature", "properties": { "name": "STAVOREN", "cmt": "PROV: FRYSLN, INW: -", "desc": "PROV: FRYSLN, INW: -", "sym": "Medium City" }, "geometry": { "type": "Point", "coordinates": [ 5.37, 52.88 ] } },
{ "type": "Feature", "properties": { "name": "HEMELUM", "cmt": "PROV: FRYSLN, INW: -", "desc": "PROV: FRYSLN, INW: -", "sym": "Medium City" }, "geometry": { "type": "Point", "coordinates": [ 5.45, 52.88 ] } },
{ "type": "Feature", "properties": { "name": "NIEUW BUREN", "cmt": "PROV: FRYSLN, INW: -", "desc": "PROV: FRYSLN, INW: -", "sym": "Medium City" }, "geometry": { "type": "Point", "coordinates": [ 5.47, 52.88 ] } },
{ "type": "Feature", "properties": { "name": "WESTEREND HARICH", "cmt": "PROV: FRYSLN, INW: -", "desc": "PROV: FRYSLN, INW: -", "sym": "Medium City" }, "geometry": { "type": "Point", "coordinates": [ 5.52, 52.88 ] } },
{ "type": "Feature", "properties": { "name": "RUIGAHUIZEN", "cmt": "PROV: FRYSLN, INW: -", "desc": "PROV: FRYSLN, INW: -", "sym": "Medium City" }, "geometry": { "type": "Point", "coordinates": [ 5.57, 52.88 ] } },
{ "type": "Feature", "properties": { "name": "DELBUREN", "cmt": "PROV: FRYSLN, INW: -", "desc": "PROV: FRYSLN, INW: -", "sym": "Medium City" }, "geometry": { "type": "Point", "coordinates": [ 5.6, 52.88 ] } },
{ "type": "Feature", "properties": { "name": "WIJCKELEREEBUURT", "cmt": "PROV: FRYSLN, INW: -", "desc": "PROV: FRYSLN, INW: -", "sym": "Medium City" }, "geometry": { "type": "Point", "coordinates": [ 5.62, 52.88 ] } },
{ "type": "Feature", "properties": { "name": "WIKEL", "cmt": "PROV: FRYSLN, INW: -", "desc": "PROV: FRYSLN, INW: -", "sym": "Medium City" }, "geometry": { "type": "Point", "coordinates": [ 5.63, 52.88 ] } },
{ "type": "Feature", "properties": { "name": "FOLLEGA", "cmt": "PROV: FRYSLN, INW: -", "desc": "PROV: FRYSLN, INW: -", "sym": "Medium City" }, "geometry": { "type": "Point", "coordinates": [ 5.73, 52.88 ] } },
{ "type": "Feature", "properties": { "name": "DELFSTRAHUIZEN", "cmt": "PROV: FRYSLN, INW: -", "desc": "PROV: FRYSLN, INW: -", "sym": "Medium City" }, "geometry": { "type": "Point", "coordinates": [ 5.83, 52.88 ] } },
{ "type": "Feature", "properties": { "name": "NIJELEMMER", "cmt": "PROV: FRYSLN, INW: -", "desc": "PROV: FRYSLN, INW: -", "sym": "Medium City" }, "geometry": { "type": "Point", "coordinates": [ 5.97, 52.88 ] } },
{ "type": "Feature", "properties": { "name": "NIJEHOLTWOUDE", "cmt": "PROV: FRYSLN, INW: -", "desc": "PROV: FRYSLN, INW: -", "sym": "Medium City" }, "geometry": { "type": "Point", "coordinates": [ 5.98, 52.88 ] } },
{ "type": "Feature", "properties": { "name": "WOLVEGA", "cmt": "PROV: FRYSLN, INW: -", "desc": "PROV: FRYSLN, INW: -", "sym": "Medium City" }, "geometry": { "type": "Point", "coordinates": [ 6.0, 52.88 ] } },
{ "type": "Feature", "properties": { "name": "DE HOEVE", "cmt": "PROV: FRYSLN, INW: -", "desc": "PROV: FRYSLN, INW: -", "sym": "Medium City" }, "geometry": { "type": "Point", "coordinates": [ 6.08, 52.88 ] } },
{ "type": "Feature", "properties": { "name": "MOLKWERUM", "cmt": "PROV: FRYSLN, INW: -", "desc": "PROV: FRYSLN, INW: -", "sym": "Medium City" }, "geometry": { "type": "Point", "coordinates": [ 5.4, 52.9 ] } },
{ "type": "Feature", "properties": { "name": "GALAMADAMMEN", "cmt": "PROV: FRYSLN, INW: -", "desc": "PROV: FRYSLN, INW: -", "sym": "Medium City" }, "geometry": { "type": "Point", "coordinates": [ 5.47, 52.9 ] } },
{ "type": "Feature", "properties": { "name": "OUDEGA", "cmt": "PROV: FRYSLN, INW: -", "desc": "PROV: FRYSLN, INW: -", "sym": "Medium City" }, "geometry": { "type": "Point", "coordinates": [ 5.52, 52.9 ] } },
{ "type": "Feature", "properties": { "name": "HARICH", "cmt": "PROV: FRYSLN, INW: -", "desc": "PROV: FRYSLN, INW: -", "sym": "Medium City" }, "geometry": { "type": "Point", "coordinates": [ 5.57, 52.9 ] } },
{ "type": "Feature", "properties": { "name": "BALK", "cmt": "PROV: FRYSLN, INW: -", "desc": "PROV: FRYSLN, INW: -", "sym": "Medium City" }, "geometry": { "type": "Point", "coordinates": [ 5.58, 52.9 ] } },
{ "type": "Feature", "properties": { "name": "SLOTEN", "cmt": "PROV: FRYSLN, INW: -", "desc": "PROV: FRYSLN, INW: -", "sym": "Medium City" }, "geometry": { "type": "Point", "coordinates": [ 5.65, 52.9 ] } },
{ "type": "Feature", "properties": { "name": "TJERKGAAST", "cmt": "PROV: FRYSLN, INW: -", "desc": "PROV: FRYSLN, INW: -", "sym": "Medium City" }, "geometry": { "type": "Point", "coordinates": [ 5.68, 52.9 ] } },
{ "type": "Feature", "properties": { "name": "DONIAGA", "cmt": "PROV: FRYSLN, INW: -", "desc": "PROV: FRYSLN, INW: -", "sym": "Medium City" }, "geometry": { "type": "Point", "coordinates": [ 5.75, 52.9 ] } },
{ "type": "Feature", "properties": { "name": "VIERHUIZEN", "cmt": "PROV: FRYSLN, INW: -", "desc": "PROV: FRYSLN, INW: -", "sym": "Medium City" }, "geometry": { "type": "Point", "coordinates": [ 5.85, 52.9 ] } },
{ "type": "Feature", "properties": { "name": "ROTSTERGAAST", "cmt": "PROV: FRYSLN, INW: -", "desc": "PROV: FRYSLN, INW: -", "sym": "Medium City" }, "geometry": { "type": "Point", "coordinates": [ 5.9, 52.9 ] } },
{ "type": "Feature", "properties": { "name": "OLDEHOLTWOUDE", "cmt": "PROV: FRYSLN, INW: -", "desc": "PROV: FRYSLN, INW: -", "sym": "Medium City" }, "geometry": { "type": "Point", "coordinates": [ 6.02, 52.9 ] } },